City,Lat,Long,Temp,Max Temp,Min Temp,Humidity,Clouds,Wind,Country,Datetime
bereda,43.2686,-7.5406,30.88,31.9,30.88,59,24,2.44,ES,1660234341
arraial do cabo,-22.9661,-42.0278,21.92,21.92,21.92,68,40,11.32,BR,1660234342
dingle,10.9995,122.6711,25.03,25.03,25.03,87,89,0.41,PH,1660234342
sioux lookout,50.1001,-91.917,20.89,20.89,20.89,31,0,0.9,CA,1660234342
constitucion,-35.3333,-72.4167,13.12,13.12,13.12,61,0,2.35,CL,1660234342
snezhnogorsk,69.1933,33.2531,16.55,16.88,16.55,71,36,5.53,RU,1660234342
vytegra,61.0064,36.4481,20.47,20.47,20.47,55,97,4.91,RU,1660234342
seoul,37.5683,126.9778,22.44,22.44,22.44,93,5,0.55,KR,1660233891
hodkovice nad mohelkou,50.6659,15.0899,24.17,24.17,24.17,34,27,3.73,CZ,1660234343
hami,42.8,93.45,32.87,32.87,32.87,23,51,8.04,CN,1660234343
hobart,-42.8794,147.3294,8.75,8.75,8.75,89,97,1.96,AU,1660234191
geraldton,-28.7667,114.6,8.23,8.23,8.23,93,0,2.57,AU,1660234343
narsaq,60.9167,-46.05,9.91,9.91,9.91,78,56,1.99,GL,1660234343
punta arenas,-53.15,-70.9167,3.37,3.37,3.37,69,20,2.82,CL,1660234343
san quintin,30.4833,-115.95,23.56,23.56,23.56,74,19,3.11,MX,1660234343
shelburne,44.0787,-80.2041,19.31,20.72,17.0,61,0,5.99,CA,1660234344
atuona,-9.8,-139.0333,24.35,24.35,24.35,81,14,10.32,PF,1660234344
hilo,19.7297,-155.09,23.96,23.96,23.96,79,92,0.6,US,1660234080
qaanaaq,77.484,-69.3632,3.44,3.44,3.44,75,100,3.37,GL,1660234345
nurota,40.5614,65.6886,26.71,26.71,26.71,22,0,6.02,UZ,1660234345
sfantu gheorghe,45.8667,25.7833,21.28,21.28,21.28,50,45,3.49,RO,1660234345
carnarvon,-24.8667,113.6333,16.86,16.86,16.86,32,0,6.88,AU,1660234068
nikolskoye,59.7035,30.7861,21.8,21.8,21.8,51,92,4.16,RU,1660234346
tasiilaq,65.6145,-37.6368,3.67,3.67,3.67,79,53,1.83,GL,1660234346
valleyview,55.0667,-117.2859,21.93,21.93,21.93,48,0,2.76,CA,1660234346
dalaba,10.7,-12.25,21.32,21.32,21.32,87,53,1.96,GN,1660234346
dikson,73.5069,80.5464,6.11,6.11,6.11,95,92,5.52,RU,1660234346
saint-philippe,-21.3585,55.7679,19.69,19.69,19.69,77,42,6.92,RE,1660234346
portland,45.5234,-122.6762,19.36,19.36,19.36,69,1,0.6,US,1660234346
kodinsk,58.6881,99.1844,12.99,12.99,12.99,96,18,1.34,RU,1660234346
busselton,-33.65,115.3333,10.48,10.48,10.48,80,0,2.89,AU,1660233871
olean,42.0776,-78.4297,23.67,25.36,22.19,43,0,4.63,US,1660234347
duma,34.7653,108.135,26.38,26.38,26.38,56,7,0.35,CN,1660234347
albany,42.6001,-73.9662,26.81,26.81,26.81,39,81,2.29,US,1660234347
amapa,1.0,-52.0,34.39,34.39,34.39,39,12,1.21,BR,1660234347
kavaratti,10.5669,72.642,27.7,27.7,27.7,80,36,9.02,IN,1660234347
torbay,47.6666,-52.7314,14.2,14.2,14.2,80,100,3.87,CA,1660234347
cape town,-33.9258,18.4232,14.86,15.62,13.95,75,100,3.58,ZA,1660234174
amboasary,-25.0333,46.3833,20.21,20.21,20.21,69,0,3.68,MG,1660234348
nalut,30.3333,10.85,36.63,36.63,36.63,17,52,5.66,LY,1660234348
ushuaia,-54.8,-68.3,2.77,2.77,2.77,84,86,1.21,AR,1660234248
hope,33.6671,-93.5916,27.9,28.03,26.66,65,18,3.56,US,1660234348
esperance,-33.8667,121.9,12.65,12.65,12.65,72,90,3.88,AU,1660234348
hasaki,35.7333,140.8333,26.58,26.58,26.58,86,49,11.35,JP,1660234349
beyneu,45.3167,55.2,32.37,32.37,32.37,18,0,0.59,KZ,1660234349
vaini,-21.2,-175.2,21.49,21.49,21.49,81,100,5.11,TO,1660234349
yellowknife,62.456,-114.3525,12.31,12.31,12.31,54,0,4.39,CA,1660234349
georgetown,5.4112,100.3354,29.36,29.38,28.86,81,20,1.03,MY,1660234344
east london,-33.0153,27.9116,20.16,20.16,20.16,76,100,4.33,ZA,1660234309
nhamunda,-2.1861,-56.7131,37.87,37.87,37.87,25,72,1.04,BR,1660234350
roma,43.2128,-75.4557,22.39,22.39,22.39,67,51,3.83,US,1660234350
marshalltown,42.0494,-92.908,26.55,29.13,23.3,69,0,0.0,US,1660234350
yanam,16.7333,82.2167,26.75,26.75,26.75,84,99,1.73,IN,1660234350
jamestown,42.097,-79.2353,22.56,22.56,22.56,45,37,5.71,US,1660234350
jaleswar,26.6471,85.8008,29.85,29.85,29.85,66,29,5.1,NP,1660234202
zyryanka,65.75,150.85,15.91,15.91,15.91,64,100,3.36,RU,1660234350
nanortalik,60.1432,-45.2371,7.91,7.91,7.91,89,94,3.26,GL,1660234350
kulhudhuffushi,6.6221,73.07,27.28,27.28,27.28,84,79,5.75,MV,1660234351
yar-sale,66.8333,70.8333,12.38,12.38,12.38,85,100,2.95,RU,1660234351
berlevag,70.8578,29.0864,10.87,10.87,10.87,84,64,13.37,NO,1660234351
changping,40.2186,116.2197,26.24,26.24,26.24,75,27,1.07,CN,1660234351
khatanga,71.9667,102.5,6.76,6.76,6.76,61,100,2.52,RU,1660234351
aksu,41.1231,80.2644,26.8,26.8,26.8,39,84,1.71,CN,1660234351
hlotse,-28.8718,28.045,14.75,14.75,14.75,25,3,0.97,LS,1660234352
bluff,-46.6,168.3333,3.3,3.3,3.3,83,8,2.41,NZ,1660234352
kodiak,57.79,-152.4072,11.25,11.25,11.25,100,100,2.26,US,1660234352
valparaiso,-33.0393,-71.6273,13.66,13.66,13.66,67,66,3.04,CL,1660234352
bredasdorp,-34.5322,20.0403,13.77,13.77,13.77,77,100,3.18,ZA,1660234352
slave lake,55.2834,-114.769,23.06,23.06,23.06,58,3,0.71,CA,1660234352
guerrero negro,27.9769,-114.0611,25.05,25.05,25.05,60,63,3.93,MX,1660234352
bandarbeyla,9.4942,50.8122,25.3,25.3,25.3,82,91,12.09,SO,1660234353
castro,-24.7911,-50.0119,15.07,15.07,15.07,57,18,3.09,BR,1660234353
batagay,67.6333,134.6333,13.17,13.17,13.17,83,90,2.37,RU,1660234353
gat,31.61,34.7642,27.8,27.8,27.8,62,0,5.26,IL,1660234353
kahului,20.8947,-156.47,24.98,25.01,24.43,84,40,9.26,US,1660234353
chicama,-7.8447,-79.1469,21.36,21.36,21.36,63,20,3.64,PE,1660234353
conceicao do araguaia,-8.2578,-49.2647,38.38,38.38,38.38,18,74,1.55,BR,1660234245
half moon bay,37.4636,-122.4286,17.09,17.09,17.09,83,56,3.26,US,1660234354
hermanus,-34.4187,19.2345,14.89,14.89,14.89,78,100,7.32,ZA,1660234354
tuatapere,-46.1333,167.6833,0.89,0.89,0.89,91,10,2.02,NZ,1660234354
katsuura,35.1333,140.3,27.05,27.05,27.05,86,30,10.21,JP,1660234354
ahuimanu,21.4447,-157.8378,25.34,25.84,24.88,77,75,8.23,US,1660234354
kapaa,22.0752,-159.319,23.24,24.18,21.93,87,75,7.72,US,1660234354
kieta,-6.2167,155.6333,25.66,25.66,25.66,82,100,1.14,PG,1660234354
rocha,-34.4833,-54.3333,16.3,16.3,16.3,61,0,4.03,UY,1660234355
sivas,39.7916,37.0019,24.69,24.69,24.69,41,33,5.5,TR,1660234355
san patricio,28.017,-97.5169,30.17,30.17,30.17,60,99,1.91,US,1660234355
abha,18.2164,42.5053,19.87,19.87,19.87,81,98,2.55,SA,1660233903
ust-kut,56.7938,105.7672,12.52,12.52,12.52,95,17,1.13,RU,1660234321
baicheng,45.6167,122.8167,17.48,17.48,17.48,68,12,3.31,CN,1660234355
obsharovka,53.125,48.8531,22.05,22.05,22.05,65,88,5.5,RU,1660234356
karaton,-6.3424,106.1045,23.83,23.83,23.83,94,25,0.8,ID,1660234356
kutum,14.2,24.6667,24.87,24.87,24.87,66,97,6.07,SD,1660234356
lagoa,39.05,-27.9833,22.6,22.6,22.6,77,73,4.54,PT,1660234356
durango,24.8333,-104.8333,22.38,22.38,22.38,49,18,2.67,MX,1660234357
cidreira,-30.1811,-50.2056,16.83,16.83,16.83,65,0,2.06,BR,1660234357
nova mayachka,46.6,33.2271,23.11,23.11,23.11,65,100,5.08,UA,1660234357
toila,59.4236,27.5025,21.41,21.41,21.41,68,82,3.9,EE,1660234357
luwuk,-0.9516,122.7875,25.11,25.11,25.11,90,47,0.47,ID,1660234357
samarinda,-0.5,117.15,23.51,23.51,23.51,97,74,0.31,ID,1660234168
constantine,36.365,6.6147,32.99,32.99,32.99,21,0,6.39,DZ,1660234262
bambous virieux,-20.3428,57.7575,20.14,20.14,20.12,73,40,6.69,MU,1660234358
mayumba,-3.432,10.6554,23.36,23.36,23.36,75,69,2.53,GA,1660234358
komsomolskiy,40.4272,71.7189,30.05,30.05,30.05,20,81,6.74,UZ,1660234358
show low,34.2542,-110.0298,23.19,23.19,23.19,48,39,1.19,US,1660234359
port lincoln,-34.7333,135.8667,12.31,12.31,12.31,73,60,8.36,AU,1660234359
rikitea,-23.1203,-134.9692,22.7,22.7,22.7,71,78,9.64,PF,1660234359
zhezkazgan,47.8043,67.7144,21.99,21.99,21.99,46,40,3.0,KZ,1660234359
airai,-8.9266,125.4092,14.58,14.58,14.58,96,61,1.28,TL,1660234359
talnakh,69.4865,88.3972,7.93,7.93,7.93,74,50,0.64,RU,1660234359
salalah,17.0151,54.0924,25.05,25.05,25.05,100,100,3.09,OM,1660234358
kihei,20.785,-156.4656,24.45,24.45,24.45,76,57,4.16,US,1660234360
bethel,41.3712,-73.414,26.44,28.53,24.75,58,0,3.09,US,1660234360
storforshei,66.4043,14.5233,10.88,10.92,10.88,87,75,1.54,NO,1660234360
taoudenni,22.6783,-3.9836,45.27,45.27,45.27,6,0,1.29,ML,1660234360
lokoja,7.8024,6.743,25.12,25.12,25.12,89,100,1.45,NG,1660234207
ulladulla,-35.35,150.4667,13.98,13.98,13.98,67,100,3.71,AU,1660234360
shibata,37.95,139.3333,25.09,25.09,25.09,87,99,1.05,JP,1660234125
fagersta,60.0042,15.7932,26.78,26.78,26.78,34,91,4.46,SE,1660234361
hamilton,39.1834,-84.5333,26.32,27.92,24.62,64,20,2.57,US,1660234183
vierzon,47.2101,2.0625,35.9,35.9,35.9,12,0,4.06,FR,1660234361
butaritari,3.0707,172.7902,27.57,27.57,27.57,74,69,5.53,KI,1660234361
benghazi,32.1167,20.0667,28.56,28.56,28.56,66,0,6.28,LY,1660234361
nadym,65.5333,72.5167,16.73,16.73,16.73,57,100,3.48,RU,1660234219
belmonte,-15.8631,-38.8828,27.94,27.94,27.94,59,25,4.61,BR,1660234361
bagdarin,54.4333,113.6,10.11,10.11,10.11,92,57,1.47,RU,1660234362
severo-kurilsk,50.6789,156.125,14.08,14.08,14.08,91,100,3.64,RU,1660234362
avarua,-21.2078,-159.775,23.16,23.16,23.16,76,22,5.57,CK,1660234362
cabo san lucas,22.8909,-109.9124,29.18,29.18,29.18,71,51,2.03,MX,1660234362
mataura,-46.1927,168.8643,-2.12,-2.12,-2.12,97,8,1.04,NZ,1660234362
oistins,13.0667,-59.5333,31.05,31.05,31.05,74,75,7.2,BB,1660234362
hvide sande,56.0045,8.1294,24.49,24.49,24.49,62,5,3.2,DK,1660234354
lakes entrance,-37.8811,147.981,8.94,8.94,8.94,80,47,2.38,AU,1660234363
gisborne,-38.6533,178.0042,8.82,8.82,8.82,88,92,6.3,NZ,1660234363
iquique,-20.2208,-70.1431,17.75,17.75,17.75,64,11,2.38,CL,1660234363
florianopolis,-27.6146,-48.5012,18.37,19.79,16.34,74,75,5.14,BR,1660234363
grafenau,48.8577,13.3974,21.73,21.73,21.73,42,100,3.57,DE,1660234363
tuktoyaktuk,69.4541,-133.0374,9.52,9.52,9.52,79,100,6.65,CA,1660234364
riachao,-7.3619,-46.6172,38.34,38.34,38.34,13,0,0.83,BR,1660234364
impfondo,1.6381,18.0667,28.6,28.6,28.6,59,100,1.18,CG,1660234364
shingu,33.7333,135.9833,25.68,25.68,25.68,93,100,0.65,JP,1660234217
muros,42.7762,-9.0603,20.28,20.28,20.28,87,81,2.59,ES,1660234364
mar del plata,-38.0023,-57.5575,12.78,12.78,12.78,56,0,7.97,AR,1660234364
upernavik,72.7868,-56.1549,5.51,5.51,5.51,79,99,2.87,GL,1660234364
prilep,41.3464,21.5544,18.43,18.43,18.43,78,94,3.14,MK,1660234365
kenai,60.5544,-151.2583,12.98,12.98,12.98,88,100,3.89,US,1660234365
klaksvik,62.2266,-6.589,12.35,12.35,12.35,73,58,5.83,FO,1660234365
urengoy,65.9667,78.3667,12.55,12.55,12.55,60,100,3.98,RU,1660234365
praia da vitoria,38.7333,-27.0667,23.0,23.0,23.0,73,99,4.56,PT,1660234365
aripuana,-9.1667,-60.6333,32.78,32.78,32.78,30,5,1.66,BR,1660234366
san rafael,-34.6177,-68.3301,14.92,14.92,14.92,31,2,2.5,AR,1660234366
verkhnevilyuysk,63.4453,120.3167,15.7,15.7,15.7,83,100,1.65,RU,1660234366
northam,51.0333,-4.2167,29.05,29.05,29.05,30,0,5.72,GB,1660234366
lavrentiya,65.5833,-171.0,4.55,4.55,4.55,97,59,1.41,RU,1660234366
trat,12.5,102.5,23.56,23.56,23.56,97,100,2.91,TH,1660234246
chake chake,-5.2459,39.7666,23.24,23.24,23.24,79,78,4.8,TZ,1660234367
saskylakh,71.9167,114.0833,6.77,6.77,6.77,63,100,3.52,RU,1660234367
thompson,55.7435,-97.8558,20.51,20.51,20.51,45,0,4.85,CA,1660234367
la orilla,17.9833,-102.2333,28.96,28.96,28.96,65,100,1.58,MX,1660234367
niono,14.2526,-5.993,32.33,32.33,32.33,48,95,1.6,ML,1660234367
dhemaji,27.4833,94.5833,28.35,28.35,28.35,81,93,1.11,IN,1660234368
sobolevo,54.4299,31.8996,20.39,20.39,20.39,70,0,2.98,RU,1660234368
mahajanga,-15.7167,46.3167,25.9,25.9,25.9,44,3,8.77,MG,1660234368
elban,50.1018,136.5094,12.85,12.85,12.85,96,100,2.62,RU,1660234368
carutapera,-1.195,-46.02,28.96,28.96,28.96,69,85,3.74,BR,1660234368
hithadhoo,-0.6,73.0833,27.84,27.84,27.84,75,10,3.2,MV,1660234368
ponta do sol,32.6667,-17.1,22.65,22.65,22.65,72,55,2.54,PT,1660234368
lakinsk,56.0193,39.9485,20.19,20.19,20.19,51,1,2.38,RU,1660234369
madras,13.0878,80.2785,31.65,31.99,31.65,72,20,3.09,IN,1660234305
shelton,41.3165,-73.0932,28.03,28.03,28.03,46,100,0.32,US,1660234369
barrow,71.2906,-156.7887,5.75,5.75,5.75,90,97,10.27,US,1660234369
mount gambier,-37.8333,140.7667,8.51,8.51,8.51,82,100,2.15,AU,1660234364
sorland,67.667,12.6934,10.92,10.92,10.92,85,98,12.04,NO,1660234370
new norfolk,-42.7826,147.0587,7.86,7.86,7.86,97,100,1.29,AU,1660234370
victoria,22.2855,114.1577,26.85,27.4,26.09,90,98,3.58,HK,1660234139
nyurba,63.2842,118.3319,16.45,16.45,16.45,77,100,1.18,RU,1660234370
chokurdakh,70.6333,147.9167,9.22,9.22,9.22,78,99,3.01,RU,1660234370
longyearbyen,78.2186,15.6401,8.91,8.91,8.91,71,75,6.17,SJ,1660234370
sitka,57.0531,-135.33,15.63,15.63,15.63,88,86,0.97,US,1660234371
faro,37.0194,-7.9322,23.19,23.19,23.19,66,0,6.7,PT,1660234120
vuktyl,63.8567,57.3094,14.18,14.18,14.18,83,95,0.6,RU,1660234371
cabra,37.4725,-4.4421,37.06,37.06,37.06,20,0,5.51,ES,1660234371
touros,-5.1989,-35.4608,28.88,28.88,28.88,60,19,6.39,BR,1660234371
souillac,-20.5167,57.5167,20.21,20.21,20.21,73,40,6.69,MU,1660234371
sarakhs,36.5449,61.1577,29.93,29.93,29.93,16,0,6.68,IR,1660234371
manacapuru,-3.2997,-60.6206,32.96,32.96,32.96,43,47,0.77,BR,1660234371
vestmanna,62.1564,-7.1664,11.07,11.07,11.07,78,68,6.6,FO,1660234372
aklavik,68.2191,-135.0107,12.61,12.61,12.61,57,68,1.68,CA,1660234372
yekepa,7.5753,-8.5419,25.61,25.61,25.61,81,68,1.82,LR,1660234372
manicore,-5.8092,-61.3003,35.08,35.08,35.08,31,67,1.62,BR,1660234372
doha,25.2867,51.5333,35.97,39.17,35.94,69,90,3.09,QA,1660234152
bermeo,43.4209,-2.7215,27.68,27.68,27.68,66,10,1.66,ES,1660234372
honiara,-9.4333,159.95,25.04,25.04,25.04,90,97,1.84,SB,1660234313
ostersund,63.1792,14.6357,16.25,16.25,16.25,63,40,2.06,SE,1660234197
lufilufi,-13.8745,-171.5986,26.86,26.86,26.86,79,32,7.15,WS,1660234373
warrington,53.3925,-2.5802,30.89,30.89,30.89,24,10,1.4,GB,1660234137
leningradskiy,69.3833,178.4167,7.51,7.51,7.51,88,90,0.8,RU,1660234373
port-gentil,-0.7193,8.7815,24.35,24.35,24.35,79,87,7.02,GA,1660234373
ketchikan,55.3422,-131.6461,18.26,18.26,15.99,72,0,3.09,US,1660234373
van,38.4924,43.3831,24.5,24.5,24.5,31,0,0.54,TR,1660234373
powell,40.1578,-83.0752,23.8,23.8,23.8,69,66,3.03,US,1660234373
south charleston,38.3684,-81.6996,26.78,26.78,26.78,55,40,2.5,US,1660234374
padang,-0.9492,100.3543,26.78,26.78,26.78,84,71,0.7,ID,1660233993
thinadhoo,0.5333,72.9333,27.78,27.78,27.78,74,28,2.15,MV,1660234230
hovd,48.0056,91.6419,20.66,20.66,20.66,41,39,2.32,MN,1660234374
lebu,-37.6167,-73.65,10.78,10.78,10.78,65,90,1.02,CL,1660234374
dombas,62.0696,9.1235,14.01,14.01,14.01,87,100,1.74,NO,1660234374
lasa,46.6166,10.7002,25.94,25.94,25.94,57,84,0.65,IT,1660234375
lorengau,-2.0226,147.2712,26.8,26.8,26.8,77,29,1.43,PG,1660234375
ferrol,43.4832,-8.2369,20.02,20.02,20.02,88,42,2.15,ES,1660234375
samaipata,-18.15,-63.8667,18.94,18.94,18.94,35,0,2.97,BO,1660234376
pevek,69.7008,170.3133,2.97,2.97,2.97,92,86,2.49,RU,1660234376
shimoda,34.6667,138.95,26.41,26.41,26.41,91,82,5.81,JP,1660234247
santa lucia,27.9117,-15.5407,21.27,21.27,21.27,62,8,4.23,ES,1660234377
puerto ayora,-0.7393,-90.3518,21.97,23.98,21.97,93,100,3.58,EC,1660234377
kamra,33.7473,73.5111,21.81,21.81,21.81,93,88,1.01,PK,1660234377
bilgram,27.1833,80.0333,30.88,30.88,30.88,58,31,6.92,IN,1660234377
paamiut,61.994,-49.6678,6.51,6.51,6.51,92,67,1.62,GL,1660234377
ternate,0.8,127.4,27.26,27.26,27.26,77,49,1.05,ID,1660234377
la ronge,55.1001,-105.2842,21.13,21.13,21.13,51,0,3.11,CA,1660234377
kurilsk,45.2333,147.8833,17.89,17.89,17.89,85,100,2.4,RU,1660234378
bada,51.392,109.8717,12.79,12.79,12.79,74,13,1.61,RU,1660234378
port alfred,-33.5906,26.891,18.07,18.07,18.07,83,99,3.73,ZA,1660234378
innisfail,-17.5333,146.0333,20.03,20.03,20.03,84,98,2.56,AU,1660234378
horsham,51.064,-0.3272,32.21,32.21,32.21,24,0,4.95,GB,1660234378
tezu,27.9167,96.1667,27.14,27.14,27.14,86,83,1.37,IN,1660234378
itarema,-2.9248,-39.9167,30.86,30.86,30.86,54,64,7.48,BR,1660234379
amarante,-6.2411,-42.8547,38.29,38.29,38.29,17,8,2.15,BR,1660234379
leirvik,59.7798,5.5005,19.56,20.35,18.81,77,40,5.14,NO,1660234379
santiago del estero,-27.7951,-64.2615,19.79,19.79,19.79,33,48,7.06,AR,1660234379
antofagasta,-23.65,-70.4,16.8,16.8,16.8,65,19,3.12,CL,1660234274
cochrane,51.1834,-114.4687,23.92,23.92,23.92,52,71,2.56,CA,1660234379
honningsvag,70.9821,25.9704,10.92,10.92,10.92,86,100,16.27,NO,1660234379
talaya,61.3833,152.75,12.46,12.46,12.46,85,100,3.04,RU,1660234380
emba,48.8264,58.1442,28.52,28.52,28.52,28,6,3.29,KZ,1660234380
washington,47.5001,-120.5015,23.87,23.87,23.87,37,0,1.48,US,1660234380
vestmannaeyjar,63.4427,-20.2734,11.15,11.15,11.15,80,100,6.11,IS,1660234380
marienburg,54.0359,19.0266,27.06,28.25,22.84,35,4,5.85,PL,1660234381
tura,25.5198,90.2201,24.16,24.16,24.16,92,26,2.31,IN,1660234381
fairview,40.8126,-73.999,28.54,28.54,28.54,39,100,1.26,US,1660234381
ribeira grande,38.5167,-28.7,26.22,26.22,26.22,73,20,5.14,PT,1660234381
vila velha,-20.3297,-40.2925,26.08,26.97,26.08,55,0,6.69,BR,1660234381
kailua,21.4022,-157.7394,25.3,25.3,25.3,78,100,10.24,US,1660234378
ucluelet,48.9329,-125.5528,15.31,15.31,15.31,87,1,1.23,CA,1660234382
kathu,7.9178,98.3332,27.89,27.89,27.89,78,93,5.16,TH,1660234382
ancud,-41.8697,-73.8203,9.21,9.21,9.21,88,100,7.43,CL,1660234382
saint pete beach,27.7253,-82.7412,29.83,29.83,29.83,65,99,2.39,US,1660234383
prince rupert,54.3161,-130.3201,13.05,13.05,13.05,94,100,2.57,CA,1660234383
vallenar,-28.5708,-70.7581,20.27,20.27,20.27,34,100,1.76,CL,1660234383
ugoofaaru,5.6667,73.0,27.32,27.32,27.32,83,66,5.2,MV,1660234383
beira,-19.8436,34.8389,22.04,22.04,22.04,76,0,4.52,MZ,1660234383
salinas,36.6777,-121.6555,21.18,21.18,21.18,56,0,1.08,US,1660234383
am timan,11.0297,20.2827,24.98,24.98,24.98,80,90,2.89,TD,1660234384
norman wells,65.282,-126.8329,14.72,14.72,14.72,47,78,1.66,CA,1660234384
sabang,5.8933,95.3214,28.21,28.21,28.21,73,92,8.37,ID,1660234384
goundi,9.3627,17.366,23.17,23.17,23.17,97,100,2.18,TD,1660234384
atambua,-9.1061,124.8925,21.97,21.97,21.97,88,35,2.15,ID,1660234384
necochea,-38.5473,-58.7368,14.46,14.46,14.46,55,0,8.62,AR,1660234384
katra,32.9833,74.95,22.8,22.8,22.8,86,100,3.05,IN,1660234384
kavieng,-2.5744,150.7967,26.88,26.88,26.88,82,38,4.48,PG,1660234385
college,64.8569,-147.8028,8.75,11.0,5.99,75,20,2.06,US,1660234385
port elizabeth,-33.918,25.5701,15.99,15.99,15.99,82,100,3.14,ZA,1660234385
kruisfontein,-34.0033,24.7314,13.32,13.32,13.32,89,100,2.03,ZA,1660234385
ourossogui,15.6064,-13.3211,37.03,37.03,37.03,37,36,3.68,SN,1660234385
mnogovershinnyy,53.9353,139.9242,11.59,11.59,11.59,99,100,1.03,RU,1660234385
ola,59.5833,151.2833,13.97,13.97,13.97,92,100,0.83,RU,1660234386
mbuji-mayi,-6.15,23.6,32.92,32.92,32.92,14,88,1.4,CD,1660234386
sorong,-0.8833,131.25,25.75,25.75,25.75,83,100,3.05,ID,1660234386
concepcion del oro,24.6333,-101.4167,20.67,20.67,20.67,44,10,1.53,MX,1660234386
malartic,48.1335,-78.1328,16.68,16.68,16.68,61,41,4.62,CA,1660234386
faanui,-16.4833,-151.75,25.29,25.29,25.29,75,13,4.41,PF,1660234386
bengkulu,-3.8004,102.2655,25.09,25.09,25.09,90,23,1.79,ID,1660234168
matara,5.9485,80.5353,25.2,25.2,25.2,92,70,2.97,LK,1660234144
bairiki,1.3292,172.9752,27.77,27.77,27.77,73,91,4.74,KI,1660234387
lazurne,46.084,32.5295,24.77,24.77,24.77,59,83,11.09,UA,1660234387
bubaque,11.2833,-15.8333,27.51,27.51,27.51,79,98,6.33,GW,1660234387
warangal,18.0,79.5833,25.25,25.25,25.25,83,64,3.48,IN,1660234236
terra santa,-2.1042,-56.4869,37.41,37.41,37.41,25,40,1.75,BR,1660234387
codrington,-38.2667,141.9667,7.31,7.31,7.31,72,100,1.48,AU,1660234387
hofn,64.2539,-15.2082,12.01,12.01,12.01,76,40,10.8,IS,1660234387
shache,38.4167,77.2406,30.78,30.78,30.78,35,87,0.47,CN,1660234388
fairbanks,64.8378,-147.7164,9.37,9.37,9.37,71,3,1.16,US,1660234328
kampot,10.6167,104.1833,25.59,25.59,25.59,83,100,2.8,KH,1660234388
lompoc,34.6391,-120.4579,21.72,21.72,21.72,53,49,3.45,US,1660234388
boissevain,49.2306,-100.0559,18.69,18.69,18.28,49,94,4.57,CA,1660234388
salym,60.0625,71.4789,16.53,16.53,16.53,60,6,2.67,RU,1660234388
palmer,42.1584,-72.3287,26.25,26.25,26.25,47,100,1.89,US,1660234389
beian,63.6559,9.5683,12.06,13.34,12.05,87,75,5.14,NO,1660234389
belaya gora,68.5333,146.4167,12.32,12.32,12.32,80,89,5.17,RU,1660234389
nerchinskiy zavod,51.3088,119.61,11.78,11.78,11.78,88,99,1.04,RU,1660234389
urumqi,43.801,87.6005,23.53,23.53,23.53,57,0,2.0,CN,1660234389
cotonou,6.3654,2.4183,25.34,25.34,25.34,79,100,6.47,BJ,1660234386
staraya russa,57.9944,31.3608,21.62,21.62,21.62,60,32,2.1,RU,1660234389
richards bay,-28.783,32.0377,21.83,21.83,21.83,76,1,6.2,ZA,1660234389
pangai,-19.8,-174.35,24.48,24.48,24.48,84,24,6.89,TO,1660234390
lichinga,-13.3128,35.2406,16.99,16.99,16.99,49,25,1.43,MZ,1660234390
xining,36.6167,101.7667,20.17,20.17,20.17,86,100,0.9,CN,1660234390
laguna,38.421,-121.4238,21.78,21.78,21.78,54,0,2.27,US,1660234390
grand gaube,-20.0064,57.6608,20.21,20.22,20.21,69,70,3.13,MU,1660234390
ararangua,-28.9347,-49.4858,18.75,18.75,18.75,60,12,2.17,BR,1660234390
waycross,31.2136,-82.354,32.2,32.2,32.2,49,98,2.22,US,1660234390
kaitangata,-46.2817,169.8464,-0.47,-0.47,-0.47,93,9,2.29,NZ,1660234391
manavalakurichi,8.1333,77.3,25.99,25.99,25.99,83,62,5.12,IN,1660234391
muroto,33.2833,134.15,27.83,27.83,27.83,81,100,0.64,JP,1660234113
tingo maria,-9.2895,-76.0088,26.02,26.02,26.02,66,69,1.36,PE,1660234391
sunrise manor,36.2111,-115.0731,30.79,30.79,30.79,43,3,1.15,US,1660234392
wommelgem,51.2043,4.5243,33.37,33.37,33.37,19,2,4.34,BE,1660234392
naze,28.3667,129.4833,26.62,26.62,26.62,80,100,2.08,JP,1660234392
lubango,-14.9172,13.4925,25.88,25.88,25.88,8,67,3.2,AO,1660234392
chapais,49.7834,-74.8492,9.14,9.14,9.14,93,100,4.36,CA,1660234392
chauk,20.8833,94.8167,28.07,28.07,28.07,68,75,5.08,MM,1660234392
synya,65.3718,58.0387,13.44,13.44,13.44,74,19,2.28,RU,1660234392
ayagoz,47.9714,80.4392,21.2,21.2,21.2,41,11,3.07,KZ,1660234392
bondo,3.8146,23.6866,28.03,28.03,28.03,63,76,1.31,CD,1660234392
lazaro cardenas,17.9583,-102.2,28.93,28.93,28.93,66,100,1.68,MX,1660234393
jiwani,25.05,61.7417,29.12,29.12,29.12,86,74,6.49,PK,1660234393
ilulissat,69.2167,-51.1,5.01,5.01,5.01,93,75,3.09,GL,1660234393
camacha,33.0833,-16.3333,21.68,21.68,21.68,68,20,5.66,PT,1660234393
abu samrah,35.3029,37.1841,29.8,29.8,29.8,42,0,7.81,SY,1660234393
saint-pierre,-21.3393,55.4781,20.6,20.6,20.6,69,29,5.04,RE,1660234167
iqaluit,63.7506,-68.5145,6.32,6.32,6.32,71,100,1.32,CA,1660234394
prainha,-1.8,-53.48,34.14,34.14,34.14,37,47,1.78,BR,1660234394
linxia,35.6003,103.2064,21.75,21.75,21.75,82,100,2.13,CN,1660234394
taltal,-25.4,-70.4833,15.49,15.49,15.49,70,78,1.52,CL,1660234395
los llanos de aridane,28.6585,-17.9182,22.29,22.29,22.29,79,13,2.24,ES,1660234212
darnah,32.767,22.6367,28.01,28.01,28.01,63,0,9.3,LY,1660234395
patur,20.45,76.9333,24.44,24.44,24.44,86,99,6.24,IN,1660234395
mahebourg,-20.4081,57.7,20.59,20.59,20.59,68,90,9.04,MU,1660234395
san cristobal,7.7669,-72.225,29.0,29.0,29.0,40,22,4.06,VE,1660234396
shu,43.5983,73.7614,22.69,22.69,22.69,45,97,0.91,KZ,1660234396
saint anthony,45.0205,-93.218,24.49,24.49,24.49,35,36,2.28,US,1660234396
lata,40.1629,-8.3327,28.5,28.5,28.5,39,0,4.76,PT,1660234397
pangnirtung,66.1451,-65.7125,10.75,10.75,10.75,62,72,1.38,CA,1660234397
krasnoselkup,65.7,82.4667,13.56,13.56,13.56,50,100,2.49,RU,1660234397
nevers,46.9167,3.3333,34.25,34.25,34.25,16,1,1.83,FR,1660234397
behshahr,36.6923,53.5526,26.67,26.67,26.67,74,0,0.36,IR,1660234397
el dorado,38.7666,-120.5177,26.98,26.98,26.98,27,0,2.11,US,1660234397
cermik,38.1361,39.4493,35.61,35.61,35.61,22,45,2.97,TR,1660234398
macheng,31.1783,115.0319,29.31,29.31,29.31,64,61,1.92,CN,1660234398
saint george,37.1041,-113.5841,29.42,29.42,29.42,43,100,0.24,US,1660234398
lulea,65.5842,22.1547,19.04,19.04,19.04,39,0,7.72,SE,1660234398
panguna,-6.3164,155.4848,19.5,19.5,19.5,96,100,0.86,PG,1660234398
mabaruma,8.2,-59.7833,32.93,32.93,32.93,50,5,1.73,GY,1660234398
el angel,0.6167,-77.9333,7.62,7.62,7.62,81,94,2.33,EC,1660234398
ahipara,-35.1667,173.1667,8.43,8.43,8.43,83,10,2.59,NZ,1660234398
pitimbu,-7.4706,-34.8086,29.33,29.33,29.33,66,59,4.76,BR,1660234399
bilma,18.6853,12.9164,41.12,41.12,41.12,5,11,3.63,NE,1660234399
tambopata,-12.7333,-69.1833,24.94,24.94,24.94,53,0,2.57,PE,1660234399
iberia,29.9502,-91.7507,29.12,29.12,29.12,66,97,2.18,US,1660234399
anchorage,61.2181,-149.9003,13.65,15.49,12.53,82,100,2.06,US,1660234399
kilis,36.7161,37.115,28.06,28.06,28.06,57,0,7.78,TR,1660234399
lamar,33.6668,-95.5836,30.93,30.95,28.99,58,0,4.63,US,1660234399
marawi,7.9986,124.2928,20.41,20.41,20.41,88,33,0.77,PH,1660234400
tigzirt,36.8886,4.1198,31.55,31.55,31.55,49,0,7.77,DZ,1660234400
fare,-16.7,-151.0167,25.26,25.26,25.26,75,5,4.62,PF,1660234400
cocentaina,38.7398,-0.4398,29.44,32.61,26.49,22,0,2.34,ES,1660234400
vardo,70.3705,31.1107,12.52,12.52,12.52,74,96,8.5,NO,1660234400
katobu,-4.9408,122.5276,23.49,23.49,23.49,96,82,1.74,ID,1660234400
loubomo,-4.1997,12.6739,28.25,28.25,28.25,44,65,3.3,CG,1660234401
roald,62.5833,6.1333,13.8,17.87,13.08,94,75,1.54,NO,1660234401
eyl,7.9803,49.8164,25.93,25.93,25.93,68,100,10.38,SO,1660234401
pasighat,28.0667,95.3333,27.15,27.15,27.15,86,88,1.32,IN,1660234292
lyskovo,56.0328,45.0422,18.87,18.87,18.87,63,0,1.58,RU,1660234401
peniche,39.3558,-9.3811,21.73,21.73,21.73,77,13,4.93,PT,1660234401
grajau,-5.8194,-46.1386,37.42,37.42,37.42,19,5,2.03,BR,1660234401
turukhansk,65.8167,87.9833,11.78,11.78,11.78,58,100,2.31,RU,1660234401
pisco,-13.7,-76.2167,16.03,16.03,15.57,88,100,3.09,PE,1660234402
provideniya,64.3833,-173.3,9.66,9.66,9.66,96,71,2.19,RU,1660234402
camapua,-19.5314,-54.0439,21.13,21.13,21.13,36,0,3.31,BR,1660234402
corning,42.1428,-77.0547,25.95,25.95,25.95,49,61,4.21,US,1660234402
traverse city,44.7631,-85.6206,20.67,20.67,20.67,51,0,5.02,US,1660234402
karratha,-20.7377,116.8463,19.77,19.77,19.77,58,0,3.62,AU,1660234402
kjollefjord,70.9457,27.3465,11.9,12.03,11.9,82,75,7.2,NO,1660234402
fomboni,-12.28,43.7425,24.14,24.14,24.14,71,1,5.8,KM,1660234402
cherskiy,68.75,161.3,13.73,13.73,13.73,65,13,2.86,RU,1660234403
tara,56.8944,74.371,18.46,18.46,18.46,75,29,2.6,RU,1660234347
sistranda,63.7256,8.834,11.98,11.98,11.98,81,93,6.6,NO,1660234403
puerto leguizamo,-0.1934,-74.7819,21.84,21.84,21.84,98,100,1.54,CO,1660234403
krivodanovka,55.0881,82.6551,20.02,20.02,20.02,72,57,6.05,RU,1660234404
de-kastri,51.4667,140.7833,13.85,13.85,13.85,90,57,1.31,RU,1660234404
beidao,34.5686,105.8933,24.22,24.22,24.22,73,83,3.73,CN,1660234359
diapaga,12.0708,1.7889,31.24,31.24,31.24,57,84,3.37,BF,1660234404
tubuala,9.5167,-79.0333,27.98,27.98,27.98,76,91,0.74,PA,1660234404
medea,36.2642,2.7539,34.18,34.18,34.18,16,9,5.13,DZ,1660234390
matucana,-11.85,-76.4,20.7,20.7,20.7,37,33,3.36,PE,1660234405
morant bay,17.8815,-76.4093,32.62,32.62,32.62,65,1,4.66,JM,1660234405
ilo,-17.6394,-71.3375,16.48,16.48,16.48,67,75,4.12,PE,1660234373
caravelas,-17.7125,-39.2481,27.89,27.89,27.89,42,89,4.16,BR,1660234406
ammon,43.4696,-111.9666,24.17,24.17,24.17,49,100,0.58,US,1660234406
ngorongoro,-3.2397,35.4875,12.4,12.4,12.4,65,49,3.64,TZ,1660234406
zhuji,29.7188,120.2423,25.43,25.43,25.43,94,100,0.73,CN,1660234235
tosya,41.0155,34.0401,23.97,23.97,23.97,53,78,3.01,TR,1660234406
caucaia,-3.7361,-38.6531,31.13,31.13,31.13,49,67,6.1,BR,1660234407
alice springs,-23.7,133.8833,9.36,9.36,9.36,65,83,2.38,AU,1660234407
wasilla,61.5814,-149.4394,14.52,14.52,14.52,71,100,1.44,US,1660234407
sao felix do xingu,-6.6447,-51.995,36.85,36.85,36.85,22,20,1.55,BR,1660234407
tiksi,71.6872,128.8694,7.0,7.0,7.0,94,100,3.83,RU,1660234407
gander,48.9682,-54.5906,17.19,17.19,17.19,60,100,3.28,CA,1660234407
alofi,-19.0595,-169.9187,25.17,25.17,25.17,72,23,6.31,NU,1660234408
asau,46.4333,26.4,20.72,20.72,20.72,54,57,2.96,RO,1660234408
kuytun,54.3419,101.5036,11.88,11.88,11.88,92,4,2.25,RU,1660234408
tanabe,33.7333,135.3667,25.95,25.95,25.95,92,94,2.95,JP,1660234120
pochutla,15.7432,-96.4661,27.77,27.77,27.77,70,100,1.09,MX,1660234408
kalmunai,7.4167,81.8167,26.76,26.76,26.76,85,71,2.68,LK,1660234408
casas grandes,30.3667,-107.95,23.58,23.58,23.58,64,6,1.36,MX,1660234408
bilibino,68.0546,166.4372,14.24,14.24,14.24,84,100,0.68,RU,1660234409
cockburn town,21.4612,-71.1419,27.57,27.57,27.57,74,8,6.48,TC,1660234409
svetlyy,54.675,20.1347,22.82,22.82,22.82,47,17,4.91,RU,1660234409
saint-joseph,-21.3667,55.6167,19.59,19.59,19.59,73,30,6.59,RE,1660234409
puerto lopez,4.0845,-72.956,29.0,29.0,29.0,65,26,2.64,CO,1660234361
ringkobing,56.0901,8.244,24.45,26.17,24.45,54,6,3.16,DK,1660234409
la palma,33.8464,-118.0467,25.8,25.8,25.8,48,16,1.58,US,1660234409
kampene,-3.6,26.6667,29.02,29.02,29.02,27,67,0.81,CD,1660234410
pimentel,-6.8367,-79.9342,18.68,18.68,18.68,76,27,5.09,PE,1660234410
itoman,26.1247,127.6694,28.61,28.61,28.61,78,100,3.16,JP,1660234240
linqiong,30.4159,103.4609,26.36,26.36,26.36,84,42,1.5,CN,1660234410
korla,41.7597,86.1469,32.67,32.67,32.67,23,92,8.65,CN,1660234410
bonavista,48.6499,-53.1147,14.83,14.83,14.83,74,99,4.9,CA,1660234410
susanville,40.4163,-120.653,22.34,22.34,22.34,23,1,0.99,US,1660234410
ust-maya,60.4167,134.5333,11.83,11.83,11.83,94,99,0.62,RU,1660234410
markova,48.6758,24.4138,17.76,17.76,17.76,72,38,1.81,UA,1660234410
turan,16.0678,108.2208,26.96,26.96,26.96,80,100,2.91,VN,1660234027
hobyo,5.3505,48.5268,25.25,25.25,25.25,76,69,10.48,SO,1660234411
seymchan,62.8833,152.4333,14.36,14.36,14.36,88,100,1.72,RU,1660234411
yulara,-25.2406,130.9889,9.4,9.4,9.4,37,0,6.07,AU,1660234411
te anau,-45.4167,167.7167,-0.98,-0.98,-0.98,90,41,0.36,NZ,1660234411
grand bank,47.0999,-55.765,16.83,16.83,16.83,74,97,4.77,CA,1660234411
sao geraldo do araguaia,-6.4006,-48.555,39.06,39.06,39.06,19,2,0.98,BR,1660234411
sur,22.5667,59.5289,31.55,31.55,31.55,62,70,5.32,OM,1660234405
anloga,5.7947,0.8973,24.6,24.6,24.6,82,97,7.21,GH,1660234412
isla mujeres,21.2311,-86.731,28.21,28.21,28.21,81,20,4.83,MX,1660234412
teavaro,-17.5,-149.7667,24.89,24.89,24.89,75,7,5.63,PF,1660234412
vagur,61.4732,-6.8119,11.25,11.25,11.25,81,94,6.23,FO,1660234412
newport,51.5877,-2.9984,28.97,28.97,28.97,34,0,2.58,GB,1660234412
salinopolis,-0.6136,-47.3561,28.27,28.27,28.27,72,74,4.62,BR,1660234412
carballo,43.213,-8.691,25.21,25.21,25.21,64,5,2.69,ES,1660234220
cape canaveral,28.4058,-80.6048,31.46,33.93,29.46,59,20,4.12,US,1660234176
popondetta,-8.7537,148.2534,22.84,22.84,22.84,92,67,1.37,PG,1660234412
fort nelson,58.8053,-122.7002,9.64,9.64,9.64,97,100,1.04,CA,1660234413
bosaso,11.2842,49.1816,33.64,33.64,33.64,43,100,5.27,SO,1660234413
barcelos,41.5388,-8.6151,25.84,27.18,22.08,60,42,3.14,PT,1660234171
novobirilyussy,56.9514,90.6661,14.38,14.38,14.38,85,71,2.29,RU,1660234413
bontang,0.1333,117.5,26.86,26.86,26.86,82,80,1.37,ID,1660234413
flin flon,54.7682,-101.865,22.12,22.12,22.12,43,9,4.46,CA,1660234413
pacific grove,36.6177,-121.9166,17.14,17.14,17.14,77,0,1.69,US,1660234413
tikapur,28.5,81.1333,28.95,28.95,28.95,68,33,2.96,NP,1660234202
vanimo,-2.6741,141.3028,25.18,25.18,25.18,85,87,0.49,PG,1660234414
nacala,-14.5428,40.6728,22.71,22.71,22.71,75,9,3.43,MZ,1660234380
rudnogorsk,57.2639,103.7519,12.1,12.1,12.1,93,8,0.79,RU,1660234414
caldono,2.7974,-76.4832,24.58,24.58,24.58,42,46,1.94,CO,1660234414
avera,33.194,-82.5271,27.3,27.3,27.3,62,100,2.85,US,1660234414
tianpeng,30.9866,103.9393,25.53,25.53,25.53,83,8,2.13,CN,1660234221
viedma,-40.8135,-62.9967,16.3,16.3,16.3,34,0,4.8,AR,1660234414
chiredzi,-21.05,31.6667,23.94,23.94,23.94,35,0,2.98,ZW,1660234410
niquero,20.0431,-77.5828,30.85,30.85,30.85,56,31,1.73,CU,1660234415
dhidhdhoo,6.8833,73.1,27.22,27.22,27.22,85,79,5.86,MV,1660234206
likhoslavl,57.1275,35.464,20.1,20.1,20.1,60,7,1.2,RU,1660234416
henties bay,-22.116,14.2845,16.06,16.06,16.06,66,1,3.31,NA,1660234416
vilcun,-38.65,-72.2333,7.41,7.41,7.41,60,41,0.91,CL,1660234416
bawku,11.0616,-0.2417,31.35,31.35,31.35,51,97,2.8,GH,1660234416
clyde river,70.4692,-68.5914,5.54,5.54,5.54,73,90,3.56,CA,1660234416
bathsheba,13.2167,-59.5167,29.03,29.03,29.03,73,18,5.03,BB,1660234417
beringovskiy,63.05,179.3167,11.19,11.19,11.19,81,93,7.56,RU,1660234417
montepuez,-13.1256,38.9997,23.26,23.26,23.26,48,36,4.39,MZ,1660234417
tessalit,20.1986,1.0114,40.67,40.67,40.67,17,9,4.79,ML,1660234417
hirara,24.8,125.2833,29.32,29.32,29.32,72,27,2.41,JP,1660234220
waipawa,-41.4122,175.5153,3.59,3.59,3.59,85,87,1.22,NZ,1660234417
nicoya,10.1483,-85.452,26.99,26.99,26.99,80,100,0.8,CR,1660234404
russell,32.3502,-85.1999,30.76,30.76,30.76,54,97,0.87,US,1660234418
benguela,-12.5763,13.4055,22.26,22.26,22.26,74,27,3.59,AO,1660234332
san jose,37.3394,-121.895,21.9,21.9,21.9,52,0,1.47,US,1660234418
birao,10.2849,22.7882,24.76,24.76,24.76,90,92,2.65,CF,1660234418
pachmarhi,22.4667,78.4333,19.63,19.63,19.63,94,100,2.99,IN,1660234262
san carlos de bariloche,-41.1456,-71.3082,4.45,4.45,4.45,95,99,3.39,AR,1660234418
imphal,24.8167,93.95,21.98,21.98,21.98,96,63,0.79,IN,1660234146
yengema,8.7167,-11.1667,23.46,23.46,23.46,97,96,1.66,SL,1660234418
awjilah,29.1081,21.2869,35.02,35.02,35.02,16,0,6.06,LY,1660234418
vila franca do campo,37.7167,-25.4333,25.23,25.23,25.23,63,32,4.59,PT,1660234419
maroantsetra,-15.4333,49.7333,19.8,19.8,19.8,83,27,3.07,MG,1660234419
myrtle beach,33.6891,-78.8867,30.43,32.27,29.05,66,40,4.63,US,1660234132
coromandel,-18.4733,-47.2003,23.08,23.08,23.08,18,97,2.28,BR,1660234419
atlantic city,39.3643,-74.4229,26.86,28.34,25.56,76,20,3.09,US,1660234419
shiroishi,38.0033,140.6183,26.82,26.82,26.13,94,99,1.46,JP,1660234373
loding,67.3,14.75,11.05,11.05,11.05,88,97,13.47,NO,1660234419
kamenka,51.3223,42.7678,20.9,20.9,20.9,72,87,5.8,RU,1660234420
kindu,-2.95,25.95,31.35,31.35,31.35,24,57,0.75,CD,1660234420
aasiaat,68.7098,-52.8699,3.24,3.24,3.24,90,89,2.67,GL,1660234420
neuquen,-38.9516,-68.0591,12.83,12.83,12.83,39,2,3.51,AR,1660234420
galle,6.0367,80.217,25.96,25.96,25.96,90,67,3.23,LK,1660233933
axim,4.8699,-2.2405,25.78,25.78,25.78,73,99,4.3,GH,1660234420
leshukonskoye,64.8989,45.7622,20.1,20.1,20.1,58,100,5.53,RU,1660234420
cap malheureux,-19.9842,57.6142,21.0,21.0,21.0,68,65,10.4,MU,1660234421
udachnyy,66.4167,112.4,9.74,9.74,9.74,90,100,6.65,RU,1660234402
saldanha,-33.0117,17.9442,13.92,13.92,13.92,86,100,3.52,ZA,1660234369
tyukhtet,56.5389,89.3011,16.99,16.99,16.99,77,98,2.81,RU,1660234421
lalawigan,11.5892,125.4697,25.28,25.28,25.28,89,57,1.4,PH,1660234421
broome,42.2506,-75.833,25.93,27.6,23.89,56,40,4.63,US,1660234421
villazon,-22.0866,-65.5942,15.85,15.85,15.85,4,7,1.44,BO,1660234422
umea,63.8284,20.2597,19.96,19.96,19.95,37,0,5.66,SE,1660234422
santa maria,-29.6842,-53.8069,17.0,17.0,17.0,61,0,2.58,BR,1660234207
sambava,-14.2667,50.1667,21.9,21.9,21.9,71,16,7.21,MG,1660234422
beausejour,50.0622,-96.5167,19.99,19.99,19.99,50,100,3.26,CA,1660234422
byron bay,-28.65,153.6167,15.58,15.58,15.58,82,100,3.25,AU,1660234194
key west,24.5557,-81.7826,28.77,28.77,28.77,70,88,5.7,US,1660234423
tazovskiy,67.4667,78.7,12.6,12.6,12.6,68,68,3.87,RU,1660234423
mackay,-21.15,149.2,19.42,19.42,19.42,77,100,5.03,AU,1660234423
oroville,39.5138,-121.5564,22.04,25.09,21.79,53,0,0.0,US,1660234424
worland,44.0169,-107.9554,30.95,30.95,30.95,25,30,3.44,US,1660234424
rundu,-17.9333,19.7667,26.58,26.58,26.58,6,0,2.19,NA,1660234424
ulaanbaatar,47.9077,106.8832,14.07,14.07,14.07,82,40,1.0,MN,1660234228
kirakira,-10.4544,161.9205,25.74,25.74,25.74,89,100,3.33,SB,1660234424
chuy,-33.6971,-53.4616,15.44,15.44,15.44,69,0,3.09,UY,1660234424
deniliquin,-35.5333,144.9667,7.39,7.39,7.39,98,37,4.32,AU,1660234425
puerto baquerizo moreno,-0.9,-89.6,20.92,20.92,20.92,85,100,5.7,EC,1660234425
niksar,40.5917,36.9517,25.42,25.42,25.42,64,7,3.12,TR,1660234425
boshnyakovo,49.6333,142.1667,15.24,15.24,15.24,76,69,3.25,RU,1660234425
tarakan,3.3,117.6333,27.22,27.22,27.22,80,68,3.3,ID,1660234425
pak thong chai,14.7226,102.0251,24.3,24.3,24.3,84,100,3.64,TH,1660234267
cukai,4.25,103.4167,26.46,26.46,26.46,90,70,2.16,MY,1660234425
zalari,53.5584,102.5065,12.34,12.34,12.34,91,22,1.52,RU,1660234426
sao filipe,14.8961,-24.4956,27.23,27.23,27.23,66,4,6.83,CV,1660234426
miandoab,36.9694,46.1027,29.68,29.68,29.68,35,0,3.42,IR,1660234426
koszalin,54.1944,16.1722,23.3,23.3,23.3,46,35,5.22,PL,1660234427
nantucket,41.2835,-70.0995,20.72,20.72,20.72,92,63,3.05,US,1660234427
krasnoarmeysk,51.0239,45.6969,23.86,23.86,23.86,50,99,2.2,RU,1660234427
aykhal,66.0,111.5,8.4,8.4,8.4,96,100,7.02,RU,1660234428
barentu,15.1139,37.5928,23.6,23.6,23.6,77,99,2.89,ER,1660234428
quatre cocos,-20.2078,57.7625,20.32,20.32,20.32,69,91,8.79,MU,1660234428
beisfjord,68.3751,17.5988,10.15,10.15,10.15,92,100,7.96,NO,1660234428
kwinana,-32.25,115.7667,11.49,11.49,11.49,74,0,4.15,AU,1660234428
nouakchott,18.0858,-15.9785,28.96,28.96,28.96,70,99,6.91,MR,1660234209
bossangoa,6.4926,17.4552,23.71,23.71,23.71,92,100,1.98,CF,1660234428
chifeng,42.2683,118.9636,20.81,20.81,20.81,50,21,0.8,CN,1660234421
dawson creek,55.7666,-120.2362,16.64,16.64,16.64,66,40,6.84,CA,1660234429
olafsvik,64.8945,-23.7142,10.68,10.68,10.68,80,100,7.78,IS,1660234429
terme,41.2092,36.9739,26.34,26.34,26.34,70,10,3.07,TR,1660234429
mount isa,-20.7333,139.5,17.51,17.51,17.51,33,99,7.17,AU,1660234429
coquimbo,-29.9533,-71.3436,14.58,14.58,14.58,72,100,1.96,CL,1660234429
boyolangu,-8.1181,111.8935,23.8,23.8,23.8,95,48,1.91,ID,1660234429
katima mulilo,-17.5,24.2667,25.4,25.4,25.4,16,0,2.4,NA,1660234430
zaysan,47.4667,84.8667,22.04,22.04,22.04,36,3,2.89,KZ,1660234430
margate,51.3813,1.3862,23.81,28.95,23.16,70,0,3.13,GB,1660234237
yantal,56.8471,105.2542,12.44,12.44,12.44,95,15,1.16,RU,1660234430
asyut,27.181,31.1837,37.17,37.17,37.17,14,0,5.47,EG,1660234431
suez,29.9737,32.5263,34.67,34.67,34.67,20,0,1.5,EG,1660234360
luderitz,-26.6481,15.1594,15.7,15.7,15.7,71,43,4.86,NA,1660234431
castelvetrano,37.6826,12.7916,27.62,27.62,27.62,56,68,1.63,IT,1660234431
ust-barguzin,53.45,108.9833,12.43,12.43,12.43,89,75,1.78,RU,1660234431
dolinsk,47.35,142.8,17.53,17.53,17.53,88,83,2.85,RU,1660234431
nagybajom,46.3923,17.5115,25.76,25.76,25.76,21,5,3.44,HU,1660234431
saint-augustin,51.226,-58.6502,18.76,18.76,18.76,74,100,7.81,CA,1660234432
christchurch,-43.5333,172.6333,1.9,1.9,1.9,86,13,1.54,NZ,1660234303
mazatlan,23.2167,-106.4167,29.23,29.23,29.23,75,95,1.3,MX,1660234432
tallahassee,30.4383,-84.2807,28.68,28.94,28.11,69,40,6.17,US,1660234432
breves,-1.6822,-50.4803,34.98,34.98,34.98,39,81,1.73,BR,1660234432
humaita,-7.5061,-63.0208,32.74,32.74,32.74,34,28,1.52,BR,1660234433
nemuro,43.3236,145.575,18.5,18.5,18.5,99,100,5.44,JP,1660234433
miri,4.4148,114.0089,26.93,26.93,26.93,83,46,2.41,MY,1660234156
balkanabat,39.5108,54.3671,33.71,33.71,33.71,17,0,5.76,TM,1660234433
graaff-reinet,-32.2522,24.5308,20.97,20.97,20.97,16,94,4.02,ZA,1660234433
xinpu,34.5997,119.1594,25.48,25.48,25.48,98,84,2.52,CN,1660234428
mirabad,30.4362,61.8383,32.71,32.71,32.71,14,89,12.13,AF,1660234434
aswan,24.0934,32.907,40.23,40.23,40.23,15,3,6.85,EG,1660234434
mehamn,71.0357,27.8492,10.38,10.38,10.38,89,89,14.24,NO,1660234434
sitio novo do tocantins,-5.5183,-47.4611,38.56,38.56,38.56,18,8,1.72,BR,1660234434
krasnoborsk,61.5598,45.934,18.66,18.66,18.66,61,92,3.09,RU,1660234434
saint-leu,-21.15,55.2833,20.46,20.46,20.46,66,43,1.68,RE,1660234435
kawalu,-7.3817,108.2082,22.68,22.68,22.68,98,88,0.58,ID,1660234435
kez,57.8979,53.7152,15.02,15.02,15.02,76,64,2.5,RU,1660234435
ati,13.2154,18.3353,31.49,31.49,31.49,53,100,5.48,TD,1660234435
abu dhabi,24.4667,54.3667,34.14,34.14,34.14,75,79,4.98,AE,1660234263
daru,-9.0763,143.2092,24.49,24.49,24.49,83,100,6.8,PG,1660234435
puerto carreno,6.189,-67.4859,30.27,30.27,30.27,66,95,0.78,CO,1660234435
waddan,29.1614,16.139,34.87,34.87,34.87,19,0,3.89,LY,1660234436
port keats,-14.25,129.55,22.29,22.29,22.29,74,2,2.07,AU,1660234436
wanning,18.8003,110.3967,26.57,26.57,26.57,90,100,1.32,CN,1660234436
praya,14.9215,-23.5087,27.27,27.27,27.27,70,16,6.09,CV,1660234436
huron,41.1501,-82.5499,23.1,24.26,21.31,71,80,4.43,US,1660234436
hutang,31.5333,119.4833,26.09,26.09,26.09,91,100,3.8,CN,1660234436
banda aceh,5.5577,95.3222,26.33,26.33,26.33,79,77,5.39,ID,1660234293
mokhotlong,-29.2894,29.0675,13.16,13.16,13.16,23,2,1.42,LS,1660234437
biga,40.2281,27.2422,27.25,27.25,27.25,44,0,6.69,TR,1660234437
dogondoutchi,13.6393,4.0287,34.99,34.99,34.99,39,99,1.86,NE,1660234437
la peca,-5.6111,-78.435,23.72,23.72,23.72,71,53,1.33,PE,1660234437
luau,-10.7073,22.2247,29.15,29.15,29.15,12,14,2.05,AO,1660234438
adrar,20.5022,-10.0711,40.17,40.17,40.17,20,6,4.37,MR,1660234221
plouzane,48.3833,-4.6167,25.14,25.14,25.14,48,1,7.3,FR,1660234438
campanha,-21.8361,-45.4006,20.8,20.8,20.8,39,11,2.18,BR,1660234438
olkhovka,53.2115,60.6069,20.3,20.3,20.3,73,64,3.88,RU,1660234438
egvekinot,66.3167,-179.1667,7.99,7.99,7.99,97,100,1.45,RU,1660234438
sterling,39.0062,-77.4286,26.67,28.41,24.49,63,75,5.66,US,1660234362
comodoro rivadavia,-45.8667,-67.5,13.92,13.92,13.92,44,0,11.83,AR,1660234439
vung tau,10.346,107.0843,27.16,27.16,27.16,82,99,4.62,VN,1660234329
kauhajoki,62.4333,22.1833,19.32,19.32,19.32,58,100,2.44,FI,1660234439
namibe,-15.1961,12.1522,18.45,18.45,18.45,81,64,4.31,AO,1660234405
