City,Lat,Long,Temp,Max Temp,Min Temp,Humidity,Clouds,Wind,Country,Datetime
dikson,73.5069,80.5464,5.92,5.92,5.92,97,100,5.08,RU,1660230932
vaini,-21.2,-175.2,21.09,21.09,21.09,100,75,4.12,TO,1660230932
punta arenas,-53.15,-70.9167,2.98,2.98,2.98,72,20,2.26,CL,1660230689
riga,57.0,24.0833,26.71,27.24,26.04,35,0,2.06,LV,1660230913
puerto ayora,-0.7393,-90.3518,21.15,21.15,21.15,85,100,4.47,EC,1660230933
pevek,69.7008,170.3133,3.2,3.2,3.2,93,86,2.68,RU,1660230933
noyabrsk,63.1994,75.4507,15.71,15.71,15.71,50,98,4.41,RU,1660230933
faanui,-16.4833,-151.75,25.24,25.24,25.24,75,10,3.95,PF,1660230934
courtenay,49.6866,-124.9936,18.53,19.59,17.22,77,75,1.03,CA,1660230934
grand gaube,-20.0064,57.6608,20.99,20.99,20.99,68,63,9.97,MU,1660230934
road town,18.4167,-64.6167,30.02,32.05,30.02,74,40,5.14,VG,1660230662
ushuaia,-54.8,-68.3,1.81,2.79,1.81,93,75,0.0,AR,1660230648
terrace,54.5163,-128.6035,16.63,16.63,16.63,87,16,1.12,CA,1660230934
atuona,-9.8,-139.0333,24.37,24.37,24.37,79,11,9.52,PF,1660230934
lata,40.1629,-8.3327,30.26,30.26,30.26,33,0,5.2,PT,1660230935
bredasdorp,-34.5322,20.0403,16.06,16.06,16.06,67,100,3.67,ZA,1660230935
castro,-24.7911,-50.0119,14.15,14.15,14.15,60,23,3.35,BR,1660230935
torbay,47.6666,-52.7314,14.68,15.71,14.38,87,100,5.14,CA,1660230935
albany,42.6001,-73.9662,25.29,25.29,25.29,44,88,2.09,US,1660230936
san luis,-33.295,-66.3356,14.3,14.3,14.3,35,65,0.97,AR,1660230727
bara,10.3744,10.7288,22.59,22.59,22.59,89,100,3.51,NG,1660230936
tuy hoa,13.0833,109.3,26.49,26.49,26.49,81,92,2.39,VN,1660230936
kahului,20.8947,-156.47,26.01,26.02,24.43,69,0,5.14,US,1660230839
tuktoyaktuk,69.4541,-133.0374,9.17,9.17,9.17,81,100,6.82,CA,1660230936
ola,59.5833,151.2833,13.4,13.4,13.4,92,100,0.85,RU,1660230936
rikitea,-23.1203,-134.9692,22.61,22.61,22.61,71,70,9.88,PF,1660230937
mataura,-46.1927,168.8643,-2.0,-2.0,-2.0,97,8,1.04,NZ,1660230937
rio gallegos,-51.6226,-69.2181,1.86,1.86,1.86,99,100,2.53,AR,1660230680
shimoda,34.6667,138.95,25.06,25.06,25.06,91,77,5.6,JP,1660230938
qaanaaq,77.484,-69.3632,3.38,3.38,3.38,76,100,3.2,GL,1660230938
gratia,44.4333,25.45,27.98,27.98,27.98,34,25,0.66,RO,1660230938
beian,63.6559,9.5683,13.16,13.16,13.16,84,100,4.4,NO,1660230939
narsaq,60.9167,-46.05,9.72,9.72,9.72,80,54,2.4,GL,1660230939
saint-philippe,-21.3585,55.7679,20.48,20.77,16.17,78,40,6.16,RE,1660230939
khani,41.9563,42.9566,25.72,25.72,25.72,72,35,1.99,GE,1660230940
hilo,19.7297,-155.09,24.07,24.07,24.07,77,95,1.0,US,1660230940
tiksi,71.6872,128.8694,7.75,7.75,7.75,91,100,3.18,RU,1660230940
constitucion,-35.3333,-72.4167,12.48,12.48,12.48,62,0,1.27,CL,1660230903
kapaa,22.0752,-159.319,24.85,24.85,24.85,80,76,6.66,US,1660230940
bluff,-46.6,168.3333,2.94,2.94,2.94,84,8,2.38,NZ,1660230940
mandera,3.9366,41.867,28.72,28.72,28.72,46,100,8.4,KE,1660230941
kuryk,43.2,51.65,32.46,32.46,32.46,26,0,1.6,KZ,1660230941
tasiilaq,65.6145,-37.6368,3.6,3.6,3.6,78,58,1.52,GL,1660230941
bermeo,43.4209,-2.7215,36.83,39.11,32.68,56,3,5.26,ES,1660230941
san vicente,-26.6167,-54.1333,16.71,16.71,16.71,50,0,1.57,AR,1660230941
riverton,40.5219,-111.9391,23.65,23.65,23.65,59,72,1.13,US,1660230942
vardo,70.3705,31.1107,12.95,12.95,12.95,73,94,10.06,NO,1660230942
moron,-34.6534,-58.6198,14.83,15.83,13.28,60,0,4.07,AR,1660230943
aksu,41.1231,80.2644,27.43,27.43,27.43,37,79,1.98,CN,1660230943
chumphon,10.3333,98.8333,22.51,22.51,22.51,90,99,2.16,TH,1660230944
ponta do sol,32.6667,-17.1,22.77,22.77,22.77,72,54,2.67,PT,1660230944
paso de carrasco,-34.8603,-56.0522,16.08,16.08,15.25,59,75,5.14,UY,1660230944
saint george,37.1041,-113.5841,28.6,28.6,28.6,46,100,0.82,US,1660230859
ribeira grande,38.5167,-28.7,22.94,22.94,22.94,70,26,1.15,PT,1660230944
georgetown,5.4112,100.3354,28.96,28.96,28.86,84,20,1.03,MY,1660230765
new norfolk,-42.7826,147.0587,5.74,8.72,5.5,83,100,0.45,AU,1660230828
xai-xai,-25.0519,33.6442,22.74,22.74,22.74,71,51,5.32,MZ,1660230945
waiuku,-37.25,174.75,5.85,6.81,4.27,74,2,2.05,NZ,1660230945
yara,20.2753,-76.9533,32.44,32.44,32.44,44,11,3.37,CU,1660230945
norman wells,65.282,-126.8329,11.99,11.99,11.99,57,86,2.1,CA,1660230945
bengkulu,-3.8004,102.2655,25.32,25.32,25.32,89,22,1.61,ID,1660230945
dudinka,69.4058,86.1778,11.85,11.85,11.85,61,85,2.61,RU,1660230771
bambari,5.768,20.6757,24.9,24.9,24.9,91,100,2.1,CF,1660230945
bambous virieux,-20.3428,57.7575,20.14,21.23,20.14,77,75,6.69,MU,1660230946
hermanus,-34.4187,19.2345,15.64,15.64,15.64,75,100,7.56,ZA,1660230761
roald,62.5833,6.1333,13.03,13.03,13.03,95,100,6.39,NO,1660230947
galesong,-5.3166,119.3661,25.87,25.87,25.87,85,99,4.38,ID,1660230947
east london,-33.0153,27.9116,20.49,20.49,20.49,71,100,3.44,ZA,1660230947
kodiak,57.79,-152.4072,12.73,12.73,12.73,94,100,4.63,US,1660230947
mombetsu,44.3525,143.3525,20.11,20.11,20.11,74,100,1.7,JP,1660230881
canchungo,12.0672,-16.0333,30.07,30.07,30.07,54,92,4.9,GW,1660230948
yeppoon,-23.1333,150.7333,14.88,14.88,14.88,88,100,3.35,AU,1660230948
port shepstone,-30.7414,30.455,20.88,20.88,20.88,76,6,5.52,ZA,1660230949
pisco,-13.7,-76.2167,17.24,17.24,17.24,74,81,2.61,PE,1660230949
tamiahua,21.2667,-97.45,28.08,28.08,28.08,73,68,1.45,MX,1660230949
mahebourg,-20.4081,57.7,20.53,20.53,20.53,70,89,8.48,MU,1660230949
taitung,22.7583,121.1444,27.54,27.54,27.54,83,9,1.48,TW,1660230945
wanaka,-44.7,169.15,-4.37,-4.37,-4.37,91,17,1.66,NZ,1660230662
codrington,-38.2667,141.9667,7.89,7.89,7.89,68,100,2.25,AU,1660230950
luanda,-8.8368,13.2343,22.28,22.28,22.28,75,5,5.99,AO,1660230950
gavle,60.6745,17.1417,28.54,28.54,27.18,51,93,1.34,SE,1660230951
saskylakh,71.9167,114.0833,7.11,7.11,7.11,61,100,4.12,RU,1660230951
kruisfontein,-34.0033,24.7314,17.71,17.71,17.71,75,100,3.6,ZA,1660230951
abay,49.6311,72.8539,16.21,16.21,16.21,72,45,3.96,KZ,1660230951
port lincoln,-34.7333,135.8667,12.26,12.26,12.26,74,47,9.23,AU,1660230952
muroto,33.2833,134.15,27.97,27.97,27.97,81,100,0.68,JP,1660230952
marsh harbour,26.5412,-77.0636,28.49,28.49,28.49,67,5,4.32,BS,1660230952
sibu,2.3,111.8167,24.58,24.58,24.58,95,10,0.61,MY,1660230952
souillac,-20.5167,57.5167,20.21,20.21,20.21,77,75,6.69,MU,1660230953
kolondieba,11.0882,-6.8926,29.3,29.3,29.3,63,96,2.54,ML,1660230953
kiunga,-6.1219,141.2906,22.56,22.56,22.56,99,91,1.08,PG,1660230953
cockburn town,21.4612,-71.1419,27.52,27.52,27.52,73,8,6.49,TC,1660230832
busselton,-33.65,115.3333,10.71,10.71,10.71,80,0,3.12,AU,1660230682
salalah,17.0151,54.0924,24.05,24.05,24.05,100,100,1.54,OM,1660230954
marmora,44.4583,7.094,21.43,21.43,21.43,59,59,1.36,IT,1660230954
kotka,60.4664,26.9458,20.82,20.82,20.82,71,70,10.33,FI,1660230954
jacmel,18.2342,-72.5347,30.67,30.67,30.67,58,1,1.2,HT,1660230812
jieshi,22.8134,115.8257,27.69,27.69,27.69,80,56,3.63,CN,1660230832
hamilton,39.1834,-84.5333,25.07,26.81,23.51,70,0,3.6,US,1660230955
sao filipe,14.8961,-24.4956,27.05,27.05,27.05,67,2,6.81,CV,1660230955
sibut,5.718,19.0739,25.01,25.01,25.01,91,94,2.3,CF,1660230955
comodoro rivadavia,-45.8667,-67.5,10.53,10.53,10.53,58,50,5.25,AR,1660230955
thompson,55.7435,-97.8558,18.29,18.29,18.29,50,0,4.5,CA,1660230956
san cristobal,7.7669,-72.225,29.1,29.1,29.1,43,18,3.58,VE,1660230956
sharjah,25.3573,55.4033,36.3,36.3,36.3,54,27,2.23,AE,1660230956
victoria,22.2855,114.1577,27.45,27.45,27.45,81,97,7.51,HK,1660230768
puerto baquerizo moreno,-0.9,-89.6,20.81,20.81,20.81,85,100,5.3,EC,1660230956
cape town,-33.9258,18.4232,14.61,14.61,14.61,80,100,4.55,ZA,1660230665
kavieng,-2.5744,150.7967,26.99,26.99,26.99,81,28,4.01,PG,1660230957
puerto escondido,15.85,-97.0667,26.13,26.13,26.13,81,100,0.99,MX,1660230876
port alfred,-33.5906,26.891,19.24,19.24,19.24,75,99,4.4,ZA,1660230930
santa cruz,-17.8,-63.1667,20.03,20.7,20.03,37,0,4.12,BO,1660230957
santa rosa,14.3122,121.1114,27.02,27.28,26.72,85,100,1.52,PH,1660230957
bandarbeyla,9.4942,50.8122,25.72,25.72,25.72,80,88,12.12,SO,1660230957
acarau,-2.8856,-40.12,30.78,30.78,30.78,54,79,6.49,BR,1660230957
guerrero negro,27.9769,-114.0611,23.58,23.58,23.58,69,74,3.76,MX,1660230958
manavalakurichi,8.1333,77.3,26.23,26.23,26.23,82,71,5.43,IN,1660230958
zholymbet,51.7433,71.7122,19.54,19.54,19.54,73,44,3.41,KZ,1660230958
yellowknife,62.456,-114.3525,11.05,11.05,11.05,59,0,4.25,CA,1660230760
khasan,42.4308,130.6434,20.9,20.9,20.9,86,93,1.71,RU,1660230958
jamestown,42.097,-79.2353,22.08,22.79,19.29,48,0,6.17,US,1660230959
bathsheba,13.2167,-59.5167,31.34,31.34,31.34,70,40,6.69,BB,1660230960
benguela,-12.5763,13.4055,22.98,22.98,22.98,71,26,4.03,AO,1660230732
beringovskiy,63.05,179.3167,11.87,11.87,11.87,77,100,6.34,RU,1660230960
dombarovskiy,50.7587,59.5386,27.17,27.17,27.17,34,23,2.98,RU,1660230960
tateyama,34.9833,139.8667,26.84,26.84,26.84,88,67,9.66,JP,1660230960
clyde river,70.4692,-68.5914,4.13,4.13,4.13,93,20,4.63,CA,1660230961
kirillov,59.863,38.3813,20.9,20.9,20.9,53,82,3.07,RU,1660230961
ponta delgada,37.7333,-25.6667,23.87,23.87,23.87,64,67,4.69,PT,1660230961
gurupa,-1.405,-51.64,33.36,33.36,33.36,45,99,1.46,BR,1660230961
cabedelo,-6.9811,-34.8339,27.17,27.17,27.17,67,47,4.65,BR,1660230687
chalmette,29.9427,-89.9634,25.4,25.4,25.4,85,100,2.6,US,1660230921
sao miguel do araguaia,-13.275,-50.1628,30.34,30.34,30.34,20,98,3.82,BR,1660230953
hobart,-42.8794,147.3294,7.48,8.92,5.7,85,100,5.66,AU,1660230760
caohe,30.2297,115.4335,29.91,29.91,29.91,60,100,2.96,CN,1660230962
saraland,30.8207,-88.0706,25.94,28.4,22.92,85,100,1.21,US,1660230962
grafton,42.207,-71.6856,25.19,25.19,25.19,52,100,1.68,US,1660230836
fairbanks,64.8378,-147.7164,7.05,7.05,7.05,82,3,1.11,US,1660230944
omboue,-1.5746,9.2618,25.22,25.22,25.22,70,98,5.24,GA,1660230962
carnarvon,-24.8667,113.6333,17.39,17.39,17.39,31,0,6.71,AU,1660230792
muros,42.7762,-9.0603,24.49,24.49,24.49,60,88,2.61,ES,1660230963
cap malheureux,-19.9842,57.6142,21.06,21.06,21.06,68,58,9.97,MU,1660230963
hervey bay,-25.2986,152.8535,16.92,16.92,16.92,84,67,3.63,AU,1660230963
krasnogorskoye,52.2953,86.1979,16.22,16.22,16.22,91,95,1.37,RU,1660230964
cidreira,-30.1811,-50.2056,16.99,16.99,16.99,64,0,0.99,BR,1660230964
winnemucca,40.973,-117.7357,21.9,21.9,21.9,57,2,1.94,US,1660230966
bonfim,3.0833,-59.95,31.82,31.82,31.82,53,34,1.36,BR,1660230966
grande prairie,55.1667,-118.8027,19.57,19.57,19.57,48,0,2.6,CA,1660230966
casteltermini,37.5405,13.6445,24.57,24.57,24.57,50,85,3.34,IT,1660230966
hvide sande,56.0045,8.1294,25.61,25.61,25.61,61,5,3.01,DK,1660230736
naze,28.3667,129.4833,26.77,26.77,26.77,78,100,1.73,JP,1660230849
kenai,60.5544,-151.2583,13.9,14.52,13.03,88,100,2.06,US,1660230966
lazaro cardenas,17.9583,-102.2,27.71,27.71,27.71,71,100,1.98,MX,1660230967
buchloe,48.0333,10.7333,25.35,26.82,24.47,43,75,5.66,DE,1660230924
axim,4.8699,-2.2405,26.09,26.09,26.09,72,100,4.56,GH,1660230967
katsuura,35.1333,140.3,26.87,26.87,26.87,87,32,10.13,JP,1660230942
xichang,27.8964,102.2634,21.27,21.27,21.27,81,85,1.81,CN,1660230822
hithadhoo,-0.6,73.0833,28.06,28.06,28.06,74,6,2.86,MV,1660230792
poum,-20.2333,164.0167,20.81,20.81,20.81,60,47,5.07,NC,1660230967
santa maria,-29.6842,-53.8069,15.86,15.86,15.86,63,0,2.66,BR,1660230913
leninsk,48.7119,45.1994,37.0,37.0,37.0,12,76,5.67,RU,1660230775
hasaki,35.7333,140.8333,26.73,26.73,26.73,87,44,10.96,JP,1660230855
amalapuram,16.5833,82.0167,27.04,27.04,27.04,84,99,1.6,IN,1660230924
cabo san lucas,22.8909,-109.9124,28.29,28.29,28.29,76,49,2.73,MX,1660230968
hammerfest,70.6634,23.6821,10.64,10.64,10.64,88,100,16.37,NO,1660230968
najran,17.4924,44.1277,36.36,36.36,36.36,16,100,7.53,SA,1660230968
chuy,-33.6971,-53.4616,15.07,15.07,15.07,72,0,2.78,UY,1660230968
lebu,-37.6167,-73.65,10.14,10.14,10.14,66,87,0.2,CL,1660230968
port keats,-14.25,129.55,22.38,22.38,22.38,75,1,1.89,AU,1660230969
sao joao da barra,-21.6403,-41.0511,27.05,27.05,27.05,41,84,3.18,BR,1660230969
sayansk,54.1088,102.1648,11.62,11.62,11.62,92,4,0.85,RU,1660230969
pelym,61.0108,61.9978,16.76,16.76,16.76,77,34,3.97,RU,1660230969
adeje,28.1227,-16.726,24.59,26.6,22.73,77,75,4.63,ES,1660230969
khatanga,71.9667,102.5,7.0,7.0,7.0,60,100,3.16,RU,1660230970
hay river,60.8156,-115.7999,11.98,11.98,11.98,71,40,3.09,CA,1660230970
kaitangata,-46.2817,169.8464,-0.26,-0.26,-0.26,93,9,2.15,NZ,1660230970
oranjemund,-28.55,16.4333,14.84,14.84,14.84,80,30,5.64,NA,1660230970
mar del plata,-38.0023,-57.5575,11.81,11.81,11.81,60,0,7.86,AR,1660230971
chokurdakh,70.6333,147.9167,9.35,9.35,9.35,83,100,3.46,RU,1660230971
presidencia roque saenz pena,-26.7852,-60.4388,19.16,19.16,19.16,42,8,4.1,AR,1660230787
dubbo,-32.25,148.6167,12.07,12.07,12.07,87,100,6.69,AU,1660230900
butaritari,3.0707,172.7902,27.29,27.29,27.29,76,64,5.65,KI,1660230971
yarmouth,41.7057,-70.2286,22.41,25.26,20.54,84,100,2.57,US,1660230972
menomonie,44.8755,-91.9193,22.44,23.23,20.99,53,0,3.09,US,1660230972
asfi,32.2994,-9.2372,24.07,24.07,24.07,71,5,9.06,MA,1660230972
dehui,44.5333,125.7,17.36,17.36,17.36,79,55,0.69,CN,1660230832
prince rupert,54.3161,-130.3201,14.06,14.06,14.06,90,37,1.59,CA,1660230972
naples,40.8333,14.25,29.38,29.38,29.38,48,68,3.91,IT,1660230973
leningradskiy,69.3833,178.4167,7.47,7.47,7.47,89,87,1.01,RU,1660230973
vestmannaeyjar,63.4427,-20.2734,11.55,11.55,11.55,82,75,6.17,IS,1660230973
hays,30.0502,-98.0336,28.14,28.14,28.14,66,81,1.78,US,1660230706
san patricio,28.017,-97.5169,29.44,31.21,27.7,66,99,1.11,US,1660230973
pacific grove,36.6177,-121.9166,16.0,16.0,16.0,81,0,1.57,US,1660230894
ulaangom,49.9811,92.0667,18.91,18.91,18.91,64,98,3.02,MN,1660230973
praia,14.9215,-23.5087,32.3,32.3,32.3,40,20,4.63,CV,1660230894
kununurra,-15.7667,128.7333,17.99,17.99,17.99,77,5,0.0,AU,1660230974
lagoa,39.05,-27.9833,22.36,22.36,22.36,76,65,3.94,PT,1660230975
nadym,65.5333,72.5167,16.77,16.77,16.77,57,100,2.44,RU,1660230975
port-gentil,-0.7193,8.7815,26.98,26.98,26.98,69,40,5.14,GA,1660230975
storsteinnes,69.2408,19.2344,11.36,11.36,9.65,91,100,10.37,NO,1660230975
mayskiy,47.6931,40.1025,36.07,36.07,36.07,15,94,5.59,RU,1660230975
thayetmyo,19.3167,95.1833,26.03,26.03,26.03,80,96,1.39,MM,1660230975
dire dawa,9.5931,41.8661,24.98,24.98,24.98,57,98,5.25,ET,1660230834
camacha,33.0833,-16.3333,19.84,19.84,19.84,68,70,3.62,PT,1660230976
marawi,7.9986,124.2928,20.59,20.59,20.59,88,30,0.7,PH,1660230976
yar-sale,66.8333,70.8333,12.75,12.75,12.75,80,100,2.78,RU,1660230976
qui nhon,13.7667,109.2333,26.97,26.97,26.97,78,84,2.69,VN,1660230776
dwarka,22.2394,68.9678,28.45,28.45,28.45,84,100,1.39,IN,1660230976
upernavik,72.7868,-56.1549,5.45,5.45,5.45,78,99,2.78,GL,1660230977
van,38.4924,43.3831,27.64,27.64,27.64,28,20,1.03,TR,1660230977
bousso,10.4795,16.7117,27.17,27.17,27.17,71,88,2.92,TD,1660230977
the valley,18.217,-63.0578,27.41,27.41,27.41,72,100,7.28,AI,1660230977
abu ghosh,31.8059,35.1093,27.54,27.56,24.06,63,0,3.13,IL,1660230977
berlevag,70.8578,29.0864,14.04,14.89,13.0,67,75,8.23,NO,1660230977
vagur,61.4732,-6.8119,11.13,11.13,11.13,81,92,5.96,FO,1660230978
kuytun,54.3419,101.5036,12.37,12.37,12.37,90,4,2.03,RU,1660230978
japura,-0.3167,102.35,27.05,27.05,27.05,78,92,1.08,ID,1660230978
bethel,41.3712,-73.414,26.0,26.0,26.0,51,100,0.96,US,1660230978
am timan,11.0297,20.2827,25.94,25.94,25.94,74,87,3.63,TD,1660230978
ilhabela,-23.7781,-45.3581,17.86,17.86,17.86,84,54,4.45,BR,1660230898
palmer,42.1584,-72.3287,25.42,25.42,25.42,51,100,1.6,US,1660230979
kaduqli,11.0167,29.7167,22.54,22.54,22.54,94,100,2.8,SD,1660230979
copiapo,-27.3667,-70.3333,19.3,19.3,19.3,41,100,1.77,CL,1660230766
redwater,33.3582,-94.2544,25.51,28.28,24.07,75,30,2.74,US,1660230979
preston,53.7667,-2.7167,29.16,33.51,24.92,42,0,4.12,GB,1660230980
ocampo,21.65,-101.5,15.84,15.84,15.84,61,100,3.66,MX,1660230980
nemuro,43.3236,145.575,18.62,18.62,18.62,98,100,5.46,JP,1660230980
avarua,-21.2078,-159.775,23.11,23.11,23.11,76,24,5.45,CK,1660230980
trelew,-43.249,-65.3051,13.07,13.07,13.07,39,30,3.81,AR,1660230745
mananara,-16.1667,49.7667,19.14,19.14,19.14,88,73,3.59,MG,1660230980
verkhoyansk,67.5447,133.385,15.15,15.15,15.15,76,88,3.09,RU,1660230980
biak,-0.9131,122.8766,24.44,24.44,24.44,88,43,0.2,ID,1660230981
liuli,-11.0833,34.6333,24.86,24.86,24.86,53,3,3.02,TZ,1660230981
lavrentiya,65.5833,-171.0,4.38,4.38,4.38,97,59,1.59,RU,1660230981
nanortalik,60.1432,-45.2371,7.86,7.86,7.86,90,92,3.02,GL,1660230981
skjervoy,70.0311,20.9714,11.3,11.3,11.3,84,100,17.84,NO,1660230981
isangel,-19.55,169.2667,20.67,20.67,20.67,62,42,5.95,VU,1660230981
sampit,-2.5333,112.95,24.1,24.1,24.1,92,67,1.24,ID,1660230843
arraial do cabo,-22.9661,-42.0278,20.74,20.74,20.74,76,25,13.28,BR,1660230790
zhigansk,66.7697,123.3711,10.22,10.22,10.22,76,88,8.36,RU,1660230981
takab,36.4009,47.1133,33.32,33.32,33.32,15,28,2.49,IR,1660230982
vila velha,-20.3297,-40.2925,26.08,27.97,26.08,42,0,3.6,BR,1660230982
ahome,25.9167,-109.1833,28.52,28.52,28.52,76,77,2.89,MX,1660230982
bilibino,68.0546,166.4372,14.52,14.52,14.52,83,100,0.52,RU,1660230983
atar,20.5169,-13.0499,42.85,42.85,42.85,14,100,6.51,MR,1660230983
kavaratti,10.5669,72.642,27.56,27.56,27.56,81,34,8.93,IN,1660230983
boddam,57.4667,-1.7833,23.89,27.46,22.49,75,0,1.12,GB,1660230983
bonga,7.2833,36.2333,18.66,18.66,18.66,85,100,0.53,ET,1660230983
poole,50.7167,-2.0,28.43,28.43,28.43,37,0,4.78,GB,1660230984
avera,33.194,-82.5271,24.77,26.42,24.39,72,100,2.69,US,1660230984
airai,-8.9266,125.4092,14.92,14.92,14.92,96,65,1.31,TL,1660230985
flinders,-34.5833,150.8552,13.32,13.32,13.32,82,100,2.8,AU,1660230985
berdigestyakh,62.0989,126.6992,14.51,14.51,14.51,87,58,1.5,RU,1660230985
luderitz,-26.6481,15.1594,16.74,16.74,16.74,66,56,6.56,NA,1660230985
morvi,22.8167,70.8333,28.16,28.16,28.16,86,100,7.67,IN,1660230887
mount gambier,-37.8333,140.7667,8.8,8.8,8.8,77,100,2.5,AU,1660230985
touros,-5.1989,-35.4608,28.99,28.99,28.99,59,23,6.51,BR,1660230985
kieta,-6.2167,155.6333,25.78,25.78,25.78,82,100,1.09,PG,1660230986
longyearbyen,78.2186,15.6401,8.91,8.91,8.91,71,75,6.17,SJ,1660230986
puerto palomas,31.7667,-107.6167,25.71,25.71,25.71,52,16,6.24,MX,1660230986
santa catarina de tepehuanes,25.35,-105.7333,20.32,20.32,20.32,66,47,0.94,MX,1660230986
barrow,71.2906,-156.7887,6.01,6.01,6.01,93,100,10.29,US,1660230826
beipiao,41.7919,120.7792,21.52,21.52,21.52,73,4,0.26,CN,1660230834
marquette,46.5333,-87.6335,17.63,17.63,17.63,45,0,3.59,US,1660230717
wageningen,51.9667,5.6667,32.69,32.69,32.69,21,0,3.94,NL,1660230987
kloulklubed,7.0419,134.2556,27.21,27.21,27.21,76,100,1.07,PW,1660230987
tambopata,-12.7333,-69.1833,22.94,22.94,22.94,56,0,2.57,PE,1660230987
erenhot,43.6475,111.9767,24.99,24.99,24.99,37,97,7.33,CN,1660230833
nikolskoye,59.7035,30.7861,25.19,26.04,23.77,49,100,4.24,RU,1660230987
namibe,-15.1961,12.1522,19.66,19.66,19.66,75,53,4.54,AO,1660230987
port hardy,50.6996,-127.4199,14.81,14.81,14.81,99,99,1.35,CA,1660230988
gigmoto,13.7796,124.39,27.06,27.06,27.06,81,15,0.75,PH,1660230988
wisconsin rapids,44.3836,-89.8174,22.04,22.23,21.33,61,0,2.57,US,1660230988
ouadda,8.0777,22.4007,24.41,24.41,24.41,87,100,2.62,CF,1660230988
ostrovnoy,68.0531,39.5131,14.24,14.24,14.24,84,100,5.59,RU,1660230989
chapais,49.7834,-74.8492,11.88,11.88,11.88,93,100,4.42,CA,1660230989
sept-iles,50.2001,-66.3821,17.0,17.0,17.0,84,90,2.44,CA,1660230907
timbiqui,2.7717,-77.6654,26.21,26.21,26.21,83,91,1.83,CO,1660230989
lompoc,34.6391,-120.4579,14.03,14.4,13.23,100,100,4.12,US,1660230890
pangkalanbuun,-2.6833,111.6167,25.07,25.07,25.07,88,75,1.61,ID,1660230988
malakal,9.5334,31.6605,21.94,21.94,21.94,96,100,1.57,SS,1660230990
talnakh,69.4865,88.3972,8.61,8.61,8.61,72,58,1.05,RU,1660230990
cherskiy,68.75,161.3,13.91,13.91,13.91,66,12,2.1,RU,1660230991
kifri,34.6959,44.9661,40.63,40.63,40.63,13,0,7.37,IQ,1660230991
pinega,64.7001,43.3936,20.8,20.8,20.8,59,100,5.89,RU,1660230991
saldanha,-33.0117,17.9442,14.82,14.82,14.82,80,100,4.2,ZA,1660230768
port hedland,-20.3167,118.5667,20.03,20.03,20.03,40,40,4.63,AU,1660230847
sitka,57.0531,-135.33,13.94,13.94,13.94,94,40,0.0,US,1660230991
karratha,-20.7377,116.8463,20.11,20.11,20.11,58,0,2.78,AU,1660230992
broome,42.2506,-75.833,24.33,25.95,22.56,64,0,3.6,US,1660230992
riachao,-7.3619,-46.6172,37.32,37.32,37.32,15,0,1.01,BR,1660230992
cayenne,4.9333,-52.3333,30.61,33.02,30.61,9,40,1.54,GF,1660230992
batouri,4.4333,14.3667,21.77,21.77,21.77,93,100,1.67,CM,1660230992
provideniya,64.3833,-173.3,9.59,9.59,9.59,96,62,2.68,RU,1660230993
ovalle,-30.5983,-71.2003,17.63,17.63,17.63,48,100,1.45,CL,1660230753
kalmunai,7.4167,81.8167,26.72,26.72,26.72,85,61,3.45,LK,1660230968
ambon,-3.6954,128.1814,24.08,24.08,24.08,94,20,3.6,ID,1660230833
thinadhoo,0.5333,72.9333,27.68,27.68,27.68,74,37,1.46,MV,1660230993
henties bay,-22.116,14.2845,16.32,16.32,16.32,66,1,3.72,NA,1660230993
lakes entrance,-37.8811,147.981,9.32,9.32,9.32,77,38,3.0,AU,1660230993
camden,39.7835,-74.9663,26.37,26.37,26.37,65,100,2.37,US,1660230994
tombouctou,20.0,-3.0,40.8,40.8,40.8,21,6,2.92,ML,1660230994
starkville,33.4504,-88.8184,26.75,26.75,26.75,77,66,0.79,US,1660230994
harper,4.375,-7.7169,26.32,26.32,26.32,70,57,4.56,LR,1660230994
juneau,58.3019,-134.4197,12.94,12.94,12.94,96,100,1.55,US,1660230867
severo-kurilsk,50.6789,156.125,14.03,14.03,14.03,89,100,3.78,RU,1660230995
puerto quijarro,-17.7833,-57.7667,22.73,22.73,22.73,36,0,1.65,BO,1660230995
shelburne,44.0787,-80.2041,19.3,21.06,17.0,62,0,6.15,CA,1660230995
caravelas,-17.7125,-39.2481,29.05,29.05,29.05,39,85,3.48,BR,1660230995
ilulissat,69.2167,-51.1,1.67,1.67,1.67,97,100,2.17,GL,1660230995
margate,51.3813,1.3862,22.6,22.6,22.6,71,0,7.25,GB,1660230995
desert hot springs,33.9611,-116.5017,32.71,32.71,32.71,28,8,0.26,US,1660230995
mount isa,-20.7333,139.5,18.87,18.87,18.87,34,99,5.66,AU,1660230996
sur,22.5667,59.5289,32.16,32.16,32.16,61,63,3.4,OM,1660230996
mildura,-34.2,142.15,10.6,10.6,10.6,58,52,6.62,AU,1660230697
morwell,-38.2333,146.4,5.33,5.33,5.33,98,5,0.48,AU,1660230839
severomuysk,56.1481,113.4267,7.44,7.44,7.44,87,100,1.79,RU,1660230997
nyurba,63.2842,118.3319,16.67,16.67,16.67,76,100,1.13,RU,1660230997
salekhard,66.53,66.6019,12.4,12.4,12.4,92,100,1.94,RU,1660230997
laguna,38.421,-121.4238,19.0,22.95,16.07,79,0,3.09,US,1660230997
samarai,-10.6167,150.6667,25.99,25.99,25.99,82,95,8.03,PG,1660230997
college,64.8569,-147.8028,7.1,7.1,7.1,82,3,1.11,US,1660230997
esperance,-33.8667,121.9,12.88,12.88,12.88,71,93,4.16,AU,1660230901
port moresby,-9.4431,147.1797,23.12,23.12,23.12,89,99,3.01,PG,1660230998
pachino,36.7186,15.0907,27.86,27.86,27.86,59,4,3.56,IT,1660230998
dingle,10.9995,122.6711,25.09,25.09,25.09,88,86,0.67,PH,1660230998
bom jesus da lapa,-13.255,-43.4181,32.42,32.42,32.42,20,44,2.09,BR,1660230900
vostok,46.4856,135.8833,13.28,13.28,13.28,98,95,1.15,RU,1660230998
yulara,-25.2406,130.9889,10.05,10.05,10.05,36,0,5.93,AU,1660230998
necochea,-38.5473,-58.7368,13.37,13.37,13.37,57,0,8.68,AR,1660230999
taoudenni,22.6783,-3.9836,45.13,45.13,45.13,7,0,1.3,ML,1660230999
banda aceh,5.5577,95.3222,26.52,26.52,26.52,78,88,5.37,ID,1660230999
port elizabeth,-33.918,25.5701,17.49,17.49,17.49,73,100,3.67,ZA,1660230999
portland,45.5234,-122.6762,17.11,17.11,17.11,79,1,0.46,US,1660230999
mahibadhoo,3.7833,72.9667,27.27,27.27,27.27,82,14,4.16,MV,1660231000
moerai,-22.4333,-151.3333,21.9,21.9,21.9,75,0,1.13,PF,1660231000
tanout,14.9709,8.8879,35.96,35.96,35.96,31,29,5.1,NE,1660231000
tunceli,39.1083,39.5471,34.25,34.25,34.25,17,2,3.52,TR,1660231000
deputatskiy,69.3,139.9,8.99,8.99,8.99,90,94,2.08,RU,1660231000
jalu,29.0331,21.5482,35.92,35.92,35.92,15,0,6.13,LY,1660231001
kaseda,31.4167,130.3167,27.9,27.9,27.9,80,98,2.07,JP,1660231001
aitape,-3.1374,142.3475,25.11,25.11,25.11,87,87,1.37,PG,1660231001
maneadero,31.7167,-116.5667,22.28,22.28,22.28,91,19,0.45,MX,1660231001
akividu,16.6,81.3833,28.21,28.21,28.21,74,92,1.98,IN,1660231002
kailua,21.4022,-157.7394,25.29,25.99,24.69,80,75,4.63,US,1660230779
batemans bay,-35.7167,150.1833,14.52,14.52,14.52,65,100,4.53,AU,1660230937
geraldton,-28.7667,114.6,8.23,8.23,8.23,87,0,2.06,AU,1660230963
buraydah,26.326,43.975,45.25,45.25,45.25,11,44,7.32,SA,1660231002
amapa,1.0,-52.0,33.64,33.64,33.64,43,11,0.98,BR,1660230877
shitanjing,39.2342,106.3439,25.12,25.12,25.12,71,1,3.93,CN,1660231002
mount pleasant,32.7941,-79.8626,29.48,29.48,29.48,64,100,3.53,US,1660231003
kupang,-10.1667,123.5833,25.1,25.1,25.1,82,23,5.13,ID,1660230896
wattegama,6.7989,81.4808,27.53,27.53,27.53,60,57,0.76,LK,1660231003
banff,51.1762,-115.5698,23.2,23.2,23.2,70,75,1.88,CA,1660231003
mashhad,36.297,59.6062,25.89,25.89,25.89,21,0,8.23,IR,1660231003
oranjestad,12.524,-70.027,27.6,27.6,27.6,86,70,9.06,AW,1660231003
bac lieu,9.285,105.7244,26.61,26.61,26.61,86,99,3.82,VN,1660230897
astorga,-23.2325,-51.6656,17.43,17.43,17.43,53,0,4.85,BR,1660230908
manokwari,-0.8667,134.0833,25.5,25.5,25.5,80,79,2.06,ID,1660231004
akureyri,65.6835,-18.0878,13.36,13.36,13.36,59,97,4.87,IS,1660230713
west seneca,42.8501,-78.7998,23.0,23.0,23.0,51,34,4.45,US,1660231004
tilichiki,60.4667,166.1,10.86,10.86,10.86,95,100,1.9,RU,1660231004
prince george,53.9166,-122.753,17.64,18.69,15.72,81,20,2.06,CA,1660231004
antofagasta,-23.65,-70.4,16.29,16.29,16.29,65,21,2.19,CL,1660231004
chenzhou,25.8,113.0333,26.15,26.15,26.15,79,8,2.49,CN,1660230819
kondinskoye,59.6481,67.41,21.81,21.81,21.81,58,56,5.4,RU,1660231005
fort nelson,58.8053,-122.7002,9.42,9.42,9.42,97,100,1.19,CA,1660231005
beyneu,45.3167,55.2,33.94,33.94,33.94,16,0,0.85,KZ,1660231005
bakel,14.905,-12.4568,35.56,35.56,35.56,43,81,3.58,SN,1660231005
changping,40.2186,116.2197,26.67,26.67,26.67,73,22,1.12,CN,1660231005
ferreira do alentejo,38.05,-8.0333,28.77,28.77,28.77,39,0,2.57,PT,1660231005
aksarka,66.5606,67.7975,13.02,13.02,13.02,86,100,2.66,RU,1660231005
arlit,18.7369,7.3853,40.59,40.59,40.59,16,20,1.91,NE,1660231006
yumen,40.2833,97.2,30.22,30.22,30.22,36,44,7.09,CN,1660231006
sorong,-0.8833,131.25,25.6,25.6,25.6,84,100,2.53,ID,1660231006
tuatapere,-46.1333,167.6833,0.95,0.95,0.95,91,10,1.62,NZ,1660231006
ostersund,63.1792,14.6357,16.25,16.25,16.25,63,0,4.12,SE,1660231006
indiana,40.0003,-86.2503,23.93,23.93,23.93,60,2,1.2,US,1660231007
tougan,13.0667,-3.0667,31.55,31.55,31.55,54,73,3.44,BF,1660231007
beloha,-25.1667,45.05,22.2,22.2,22.2,46,0,4.8,MG,1660231007
pangnirtung,66.1451,-65.7125,9.9,9.9,9.9,65,86,1.47,CA,1660231007
idritsa,56.3316,28.8988,24.11,24.11,24.11,40,2,1.01,RU,1660231007
alice springs,-23.7,133.8833,9.26,9.26,9.26,67,81,2.02,AU,1660230729
ndende,-2.4008,11.3581,34.62,34.62,34.62,31,94,1.58,GA,1660231008
massaguet,12.4755,15.4365,33.97,33.97,33.97,43,97,5.35,TD,1660230968
bestobe,52.4994,73.0975,20.74,20.74,20.74,64,53,2.77,KZ,1660231008
port blair,11.6667,92.75,27.64,27.64,27.64,80,100,5.09,IN,1660230900
krasnaya gorka,55.1962,56.6673,18.63,18.63,18.63,73,59,1.81,RU,1660231008
bitung,1.4451,125.1824,25.47,25.47,25.47,84,14,2.97,ID,1660231008
batsfjord,70.6345,29.7185,12.12,12.12,12.12,77,82,12.42,NO,1660231008
oistins,13.0667,-59.5333,28.42,28.42,28.42,73,34,5.09,BB,1660231008
sars,56.5502,57.1366,15.66,15.66,15.66,72,15,3.44,RU,1660231009
dentsville,34.064,-80.9582,26.48,27.19,25.03,79,0,3.09,US,1660231009
coquimbo,-29.9533,-71.3436,14.42,14.42,14.42,73,100,1.5,CL,1660231009
feldkirchen,48.148,11.7434,26.14,27.03,25.53,40,100,4.02,DE,1660231010
lyskovo,56.0328,45.0422,21.8,21.8,21.8,57,0,1.08,RU,1660231010
ryotsu,38.0833,138.4333,24.82,24.82,24.82,90,100,1.51,JP,1660230785
paamiut,61.994,-49.6678,6.43,6.43,6.43,92,84,0.43,GL,1660231010
sokoto,13.0609,5.239,21.86,21.86,21.86,85,100,6.55,NG,1660231010
colon,9.3592,-79.9014,28.03,28.03,28.03,78,99,1.34,PA,1660231011
maldonado,-34.6667,-54.9167,15.66,15.66,15.66,62,0,3.68,UY,1660231011
sisimiut,66.9395,-53.6735,6.24,6.24,6.24,70,100,2.15,GL,1660231011
do gonbadan,30.3586,50.7981,30.05,30.05,30.05,89,75,10.29,IR,1660230968
bridlington,54.0831,-0.1919,20.12,20.12,20.12,67,2,4.92,GB,1660231011
eyl,7.9803,49.8164,26.31,26.31,26.31,68,99,10.6,SO,1660231011
roebourne,-20.7833,117.1333,19.97,19.97,19.97,59,0,2.97,AU,1660231011
sunbury,-37.5833,144.7333,9.87,11.05,8.24,89,75,5.14,AU,1660231012
garowe,8.4054,48.4845,27.87,27.87,27.87,52,99,10.31,SO,1660230819
inegol,40.0781,29.5133,25.6,25.6,25.6,57,3,5.9,TR,1660230790
carauari,-4.8828,-66.8958,29.82,29.82,29.82,51,74,2.09,BR,1660231012
berea,41.3662,-81.8543,21.15,21.15,21.15,64,88,4.27,US,1660230865
culebra,18.303,-65.301,32.05,32.05,31.02,77,100,7.65,PR,1660231013
manono,-7.3,27.4167,34.37,34.37,34.37,16,10,1.9,CD,1660231014
gonzalez,30.5816,-87.2914,24.91,24.91,24.91,87,100,1.83,US,1660231014
ballina,-28.8667,153.5667,13.34,13.34,12.1,99,100,3.29,AU,1660231014
kekri,25.9667,75.15,28.21,28.21,28.21,74,100,6.06,IN,1660231014
igrim,63.1906,64.4162,13.92,13.92,13.92,96,100,3.87,RU,1660231014
chernyshevskiy,63.0128,112.4714,14.86,14.86,14.86,78,100,1.35,RU,1660231015
la ronge,55.1001,-105.2842,21.12,21.12,21.12,60,40,4.63,CA,1660231015
brae,60.3964,-1.353,13.29,13.29,13.29,93,100,6.89,GB,1660231015
champerico,14.3,-91.9167,27.44,27.44,27.44,69,95,1.56,GT,1660231015
taua,-5.9667,-40.3,31.66,31.66,31.66,31,18,2.88,BR,1660231015
hami,42.8,93.45,33.48,33.48,33.48,22,59,8.88,CN,1660231015
iqaluit,63.7506,-68.5145,5.76,5.76,5.76,74,100,1.15,CA,1660231015
verkhnetulomskiy,68.6073,31.7962,15.15,15.15,15.15,64,67,4.32,RU,1660231016
kovur,14.4833,79.9833,32.31,32.31,32.31,48,99,3.83,IN,1660231016
richards bay,-28.783,32.0377,23.15,23.15,23.15,70,1,6.31,ZA,1660230752
bishop auckland,54.6555,-1.6771,28.84,31.19,24.51,42,4,1.79,GB,1660231016
odweyne,9.4092,45.064,24.67,24.67,24.67,54,95,11.21,SO,1660231016
pemangkat,1.1667,108.9667,27.75,27.75,27.75,77,44,0.66,ID,1660231016
mayahi,13.9553,7.6712,29.85,29.85,29.85,57,100,5.98,NE,1660231017
lunenburg,44.3835,-64.3155,18.86,23.6,18.33,92,98,2.7,CA,1660231017
mareeba,-17.0,145.4333,13.77,13.77,13.77,99,13,1.05,AU,1660231017
kontagora,10.3999,5.4695,26.78,26.78,26.78,80,97,1.21,NG,1660231017
manta,-0.95,-80.7333,23.0,23.0,23.0,77,99,3.48,EC,1660231017
santa isabel do rio negro,-0.4139,-65.0192,31.65,31.65,31.65,55,27,1.26,BR,1660231017
nelson bay,-32.7167,152.15,13.98,13.98,13.98,81,100,4.63,AU,1660231017
kedrovyy,56.1667,91.8167,15.78,15.78,15.78,89,42,1.71,RU,1660231018
kyzyl-suu,42.3414,78.0056,17.71,17.71,17.71,68,30,2.15,KG,1660231019
huallanca,-9.8993,-76.9417,10.74,10.74,10.74,61,61,2.25,PE,1660231019
meulaboh,4.1363,96.1285,25.9,25.9,25.9,80,89,0.66,ID,1660231020
kendari,-3.945,122.4989,23.89,23.89,23.89,94,72,0.46,ID,1660231020
vao,-22.6667,167.4833,20.12,20.12,20.12,57,1,8.12,NC,1660231020
iberia,29.9502,-91.7507,27.64,28.31,25.99,78,0,3.09,US,1660231021
nabire,-3.3667,135.4833,24.47,24.47,24.47,90,84,1.19,ID,1660231021
sabha,27.0377,14.4283,36.93,36.93,36.93,12,0,5.57,LY,1660230841
camargo,27.6667,-105.1667,25.92,25.92,25.92,45,1,0.78,MX,1660231021
nuuk,64.1835,-51.7216,7.73,7.73,7.73,78,18,3.81,GL,1660231021
hirado,33.3597,129.5531,27.99,27.99,27.99,88,100,4.67,JP,1660230969
saint-pierre,-21.3393,55.4781,20.25,20.82,16.21,66,20,5.66,RE,1660231022
bekhtery,46.251,32.2927,29.05,29.05,29.05,40,100,6.46,UA,1660231022
onega,63.9061,38.1404,19.51,19.51,19.51,74,100,6.26,RU,1660231022
teya,60.3778,92.6267,10.52,10.52,10.52,73,0,1.6,RU,1660231023
petropavlovsk-kamchatskiy,53.0452,158.6483,10.33,10.33,9.88,100,100,2.0,RU,1660231023
soyo,-6.1349,12.3689,23.45,23.45,23.45,70,75,3.87,AO,1660231023
tocopilla,-22.092,-70.1979,18.07,18.07,18.07,58,7,1.54,CL,1660230741
villa sandino,12.0483,-84.9936,20.65,20.65,20.65,85,100,4.88,NI,1660231024
chiredzi,-21.05,31.6667,27.49,27.49,27.49,28,0,3.81,ZW,1660230810
aipe,3.2222,-75.2367,30.54,30.54,30.54,39,44,2.96,CO,1660231024
acapulco,16.8634,-99.8901,27.9,27.9,27.9,78,100,2.06,MX,1660231024
dubuque,42.4833,-90.8668,21.57,22.01,20.97,64,0,3.6,US,1660231024
linxia,35.6003,103.2064,22.43,22.43,22.43,80,100,2.07,CN,1660230839
bushehr,28.9684,50.8385,36.71,36.71,36.71,45,1,6.27,IR,1660230798
miri,4.4148,114.0089,28.08,28.08,28.08,89,40,1.03,MY,1660231025
gat,31.61,34.7642,30.27,31.33,27.82,100,0,5.79,IL,1660231025
tual,-5.6667,132.75,26.76,26.76,26.76,82,73,5.74,ID,1660230950
seymchan,62.8833,152.4333,14.48,14.48,14.48,87,100,1.15,RU,1660231026
coihaique,-45.5752,-72.0662,6.97,7.34,6.97,76,75,2.57,CL,1660231026
boyuibe,-20.4167,-63.2833,18.82,18.82,18.82,23,0,4.13,BO,1660231026
rupert,42.6191,-113.6772,20.97,20.97,20.97,73,0,1.54,US,1660231026
kahuta,33.5913,73.3868,24.47,24.47,24.47,85,63,2.79,PK,1660231026
selkirk,50.1436,-96.8845,17.89,17.89,17.89,55,100,2.82,CA,1660231027
xapuri,-10.6517,-68.5044,25.93,25.93,25.93,37,23,1.73,BR,1660231027
cape coast,5.1053,-1.2466,25.46,25.46,25.46,78,100,6.81,GH,1660231028
ketchikan,55.3422,-131.6461,15.05,15.05,15.05,88,15,1.27,US,1660231028
qobustan,40.0824,49.412,28.29,28.29,28.29,65,0,2.85,AZ,1660231028
buala,-8.145,159.5921,26.28,26.28,26.28,82,78,1.67,SB,1660231028
komsomolskiy,40.4272,71.7189,29.4,29.4,29.4,23,76,2.06,UZ,1660231029
hofn,64.2539,-15.2082,12.01,12.01,12.01,76,75,9.26,IS,1660231029
bidar,17.9,77.55,23.89,23.89,23.89,81,100,7.4,IN,1660230906
coahuayana,18.7333,-103.6833,28.61,28.61,28.61,67,100,0.44,MX,1660231029
belmonte,-15.8631,-38.8828,27.85,27.85,27.85,59,24,4.42,BR,1660231029
haines junction,60.7522,-137.5108,8.96,8.96,8.96,92,100,0.3,CA,1660231029
vasai,19.47,72.8,28.05,28.05,28.05,84,100,10.8,IN,1660231030
saint anthony,45.0205,-93.218,21.67,23.85,19.03,63,0,3.09,US,1660231030
waw,7.7029,27.9953,25.1,25.1,25.1,80,100,0.87,SS,1660231031
klaksvik,62.2266,-6.589,12.34,12.34,12.34,73,45,6.1,FO,1660231031
jackson,42.4165,-122.8345,16.58,16.58,16.58,67,0,0.33,US,1660231031
sulangan,11.1373,123.7228,28.36,28.36,28.36,72,41,2.0,PH,1660231031
oktyabrskoye,43.0645,44.7417,27.16,27.16,27.16,64,0,0.71,RU,1660231032
flin flon,54.7682,-101.865,19.67,19.67,19.67,49,12,4.12,CA,1660231032
rawson,-43.3002,-65.1023,12.52,12.52,12.52,45,17,4.09,AR,1660231033
sulphur springs,33.1385,-95.6011,27.93,28.84,25.53,74,0,2.57,US,1660231033
mwinilunga,-11.7358,24.4293,27.79,27.79,27.79,14,5,4.0,ZM,1660231033
mattru,7.6244,-11.8332,25.81,25.81,25.81,88,92,2.99,SL,1660231033
takoradi,4.8845,-1.7554,26.66,26.66,26.66,70,100,6.33,GH,1660231033
waipawa,-41.4122,175.5153,3.82,3.82,3.82,86,90,1.11,NZ,1660231034
vilhena,-12.7406,-60.1458,22.12,22.12,22.12,37,0,4.63,BR,1660231034
fatehgarh,27.3667,79.6333,31.59,31.59,31.59,56,16,7.22,IN,1660231034
peniche,39.3558,-9.3811,24.86,28.93,23.29,67,17,5.45,PT,1660231034
kharan,28.5833,65.4167,31.5,31.5,31.5,49,57,11.95,PK,1660231034
junin,-34.5838,-60.9433,16.61,16.61,16.61,54,0,5.99,AR,1660231034
freeport,40.6576,-73.5832,25.87,27.99,23.99,70,40,4.12,US,1660231035
itarema,-2.9248,-39.9167,30.97,30.97,30.97,53,79,6.89,BR,1660231035
hua hin,12.5707,99.9588,26.63,26.63,26.63,70,100,6.04,TH,1660231035
san quintin,30.4833,-115.95,22.72,22.72,22.72,78,16,3.07,MX,1660231035
nome,64.5011,-165.4064,11.03,11.04,8.95,83,100,3.6,US,1660231037
xambioa,-6.4111,-48.5364,37.6,37.6,37.6,21,2,1.41,BR,1660231037
vegreville,53.5001,-112.0518,21.27,21.27,21.27,62,20,2.28,CA,1660231037
jinzhou,41.1078,121.1417,22.3,22.3,22.3,89,30,0.38,CN,1660231038
palmerston,-12.486,130.9833,22.92,22.92,22.92,86,34,0.4,AU,1660231039
darnah,32.767,22.6367,28.35,28.35,28.35,61,0,9.25,LY,1660231039
tommot,58.9564,126.2925,13.18,13.18,13.18,99,100,1.27,RU,1660231039
mayo,38.8876,-76.5119,25.51,27.29,23.86,77,20,4.63,US,1660231040
san policarpo,12.1791,125.5072,26.74,26.74,26.74,81,29,1.17,PH,1660231040
usinsk,65.9939,57.5281,18.94,18.94,18.94,47,7,2.87,RU,1660231040
san andres,12.5847,-81.7006,27.21,27.21,27.21,84,100,8.15,CO,1660230841
asau,46.4333,26.4,24.51,24.6,24.51,48,64,3.45,RO,1660231040
whitehorse,60.7161,-135.0538,9.14,9.43,7.23,93,75,5.36,CA,1660231041
makakilo city,21.3469,-158.0858,24.02,24.02,24.02,80,100,7.89,US,1660230950
porto velho,-8.7619,-63.9039,27.03,27.03,27.03,41,0,3.09,BR,1660230788
dmytrivka,45.9717,28.9864,26.41,26.41,26.41,43,57,5.85,UA,1660231042
kemijarvi,66.7131,27.4306,18.17,18.17,18.17,48,52,5.4,FI,1660231042
inta,66.0317,60.1659,14.52,14.52,14.52,76,90,0.64,RU,1660231042
douglas,41.3,-96.167,26.64,28.81,24.86,61,0,3.09,US,1660231042
aklavik,68.2191,-135.0107,12.0,12.0,12.0,82,75,1.03,CA,1660231042
sioux lookout,50.1001,-91.917,18.91,18.91,18.91,37,0,0.82,CA,1660231042
kapustin yar,48.5831,45.7372,36.96,36.96,36.96,12,46,5.95,RU,1660231043
kaeo,-35.1,173.7833,4.62,4.62,4.62,94,6,2.68,NZ,1660231043
grindavik,63.8424,-22.4338,10.81,10.81,10.81,76,100,6.48,IS,1660231043
urusha,54.05,122.9,12.29,12.29,12.29,90,100,1.66,RU,1660231044
ritchie,-29.038,24.6028,26.56,26.56,26.56,11,32,3.89,ZA,1660231044
soe,-9.8607,124.284,18.06,18.06,18.06,93,40,1.91,ID,1660231044
lichinga,-13.3128,35.2406,20.05,20.05,20.05,45,75,4.12,MZ,1660231045
mitsamiouli,-11.3847,43.2844,24.76,24.76,24.76,69,4,1.38,KM,1660231045
den helder,52.9599,4.7593,27.15,31.1,23.99,65,0,5.14,NL,1660231045
poya,-21.35,165.15,16.88,16.88,16.88,72,42,2.68,NC,1660231045
lorengau,-2.0226,147.2712,26.86,26.86,26.86,77,33,1.34,PG,1660231045
northam,51.0333,-4.2167,33.47,33.47,33.47,30,0,5.62,GB,1660231045
rio grande,-32.035,-52.0986,15.58,15.58,15.58,74,1,1.75,BR,1660230849
jumla,29.2747,82.1838,17.65,17.65,17.65,92,100,0.47,NP,1660231046
polis,35.0367,32.4264,30.71,30.71,29.9,66,0,4.66,CY,1660231046
nioro,13.35,-15.75,32.54,32.54,32.54,53,50,4.43,GM,1660231046
gizo,-8.103,156.8419,27.01,27.01,27.01,77,99,1.84,SB,1660231046
kyra,49.5776,111.9753,14.19,14.19,14.19,78,75,1.82,RU,1660231046
ornes,66.8689,13.7078,10.95,10.95,10.95,91,100,9.44,NO,1660230779
son la,21.3167,103.9,20.76,20.76,20.76,100,100,1.62,VN,1660231046
oussouye,12.485,-16.5469,31.61,31.61,31.61,55,41,4.89,SN,1660231046
aswan,24.0934,32.907,41.5,41.5,41.5,14,3,7.25,EG,1660231047
catalina,32.5056,-110.9211,25.26,26.64,23.53,64,100,0.6,US,1660231047
mbandaka,0.0487,18.2603,32.07,32.07,32.07,38,79,2.87,CD,1660231019
ucluelet,48.9329,-125.5528,16.72,16.72,16.17,93,1,1.52,CA,1660231048
belyy yar,53.6039,91.3903,20.33,20.33,20.33,54,89,0.75,RU,1660231048
herat,34.5,62.0,25.83,25.83,25.83,19,0,18.43,AF,1660231048
mabaruma,8.2,-59.7833,31.91,31.91,31.91,55,7,1.44,GY,1660231048
muyezerskiy,63.9333,31.65,19.31,19.31,19.31,79,100,6.23,RU,1660231048
naraura,28.2,78.3833,30.75,30.75,30.75,58,71,4.44,IN,1660231048
sangar,63.9242,127.4739,14.28,14.28,14.28,91,6,0.59,RU,1660231049
charagua,-19.8,-63.2167,18.95,18.95,18.95,24,0,4.01,BO,1660231049
