City,Lat,Long,Temp,Max Temp,Min Temp,Humidity,Clouds,Wind,Country,Datetime
slave lake,55.2834,-114.769,21.99,21.99,21.99,78,0,1.54,CA,1660242190
taoudenni,22.6783,-3.9836,44.38,44.38,44.38,7,1,2.41,ML,1660242190
mataura,-46.1927,168.8643,-2.05,-2.05,-2.05,97,8,1.19,NZ,1660242190
san patricio,28.017,-97.5169,32.42,35.4,28.91,57,99,1.15,US,1660242190
olafsvik,64.8945,-23.7142,10.54,10.54,10.54,79,100,6.42,IS,1660242191
grindavik,63.8424,-22.4338,10.71,10.71,10.71,80,99,6.44,IS,1660241808
svetlaya,46.5389,138.3297,17.18,17.18,17.18,91,69,2.22,RU,1660242191
nikolskoye,59.7035,30.7861,19.94,19.94,19.32,63,98,3.36,RU,1660242191
albany,42.6001,-73.9662,29.66,29.66,29.66,34,92,2.86,US,1660242191
kaitangata,-46.2817,169.8464,-0.72,-0.72,-0.72,92,11,2.57,NZ,1660242191
coihaique,-45.5752,-72.0662,5.05,5.05,5.05,93,100,2.44,CL,1660241768
poum,-20.2333,164.0167,20.2,20.2,20.2,61,14,3.66,NC,1660242192
upernavik,72.7868,-56.1549,5.58,5.58,5.58,79,98,2.25,GL,1660242192
terra santa,-2.1042,-56.4869,36.59,36.59,36.59,27,83,1.8,BR,1660242192
port elizabeth,-33.918,25.5701,15.61,15.61,15.61,87,97,2.07,ZA,1660242192
bluff,-46.6,168.3333,3.25,3.25,3.25,85,23,3.2,NZ,1660242192
saint-philippe,-21.3585,55.7679,17.77,18.45,17.77,71,53,6.72,RE,1660242192
jamestown,42.097,-79.2353,23.58,24.47,21.51,47,40,5.66,US,1660242192
barrow,71.2906,-156.7887,6.41,6.41,6.41,89,98,10.16,US,1660242193
guerrero negro,27.9769,-114.0611,27.38,27.38,27.38,50,45,5.37,MX,1660242193
paamiut,61.994,-49.6678,6.57,6.57,6.57,91,60,3.82,GL,1660242193
yellowknife,62.456,-114.3525,16.29,16.29,15.87,41,20,4.12,CA,1660242193
busselton,-33.65,115.3333,9.86,9.86,9.86,82,0,3.78,AU,1660242193
avera,33.194,-82.5271,29.73,29.73,29.03,45,99,3.52,US,1660242193
hilo,19.7297,-155.09,22.86,29.6,22.84,96,100,2.06,US,1660242193
bontang,0.1333,117.5,26.31,26.31,26.31,82,48,0.6,ID,1660241708
port keats,-14.25,129.55,22.0,22.0,22.0,63,2,2.36,AU,1660242193
saint anthony,45.0205,-93.218,26.43,28.41,24.78,45,0,5.14,US,1660242194
padang,-0.9492,100.3543,26.14,26.14,26.14,89,93,1.29,ID,1660242194
tarko-sale,64.9225,77.785,13.16,13.16,13.16,60,96,6.06,RU,1660242194
lebu,-37.6167,-73.65,11.49,11.49,11.49,75,93,1.46,CL,1660242194
maua,-23.6678,-46.4614,14.72,14.72,14.72,72,78,4.58,BR,1660242195
esperance,-33.8667,121.9,12.28,12.28,12.28,72,78,4.01,AU,1660242195
ribeira grande,38.5167,-28.7,23.81,23.81,23.81,73,54,3.2,PT,1660242195
new norfolk,-42.7826,147.0587,6.13,6.51,5.72,78,89,0.87,AU,1660242195
rikitea,-23.1203,-134.9692,22.76,22.76,22.76,72,54,9.98,PF,1660242196
williams lake,52.1415,-122.1445,25.76,25.76,25.76,50,40,2.57,CA,1660242196
cape town,-33.9258,18.4232,14.4,15.49,13.39,79,75,5.81,ZA,1660241928
narsaq,60.9167,-46.05,10.27,10.27,10.27,75,62,1.41,GL,1660242196
stokmarknes,68.5646,14.9108,10.99,10.99,10.98,76,75,9.26,NO,1660242196
raton,36.9034,-104.4391,24.38,27.4,24.34,50,0,5.14,US,1660242196
dingle,10.9995,122.6711,24.88,24.88,24.88,88,87,0.46,PH,1660242196
touros,-5.1989,-35.4608,27.89,27.89,27.89,65,29,6.16,BR,1660242197
santiago de cao,-7.9589,-79.2392,18.51,18.51,18.51,78,19,5.23,PE,1660242197
te anau,-45.4167,167.7167,-1.27,-1.27,-1.27,91,39,0.46,NZ,1660242197
carnarvon,-24.8667,113.6333,16.16,16.16,16.16,33,0,7.01,AU,1660242197
kapaa,22.0752,-159.319,26.35,26.93,25.18,77,40,7.72,US,1660242197
vaini,-21.2,-175.2,23.39,23.39,23.39,69,99,5.95,TO,1660242197
hofn,64.2539,-15.2082,11.15,11.15,11.15,81,55,7.17,IS,1660242198
rorvik,64.8621,11.2373,12.06,13.99,12.06,82,40,6.69,NO,1660242198
korgen,66.0771,13.8153,10.68,10.68,10.68,89,100,3.81,NO,1660242198
clyde river,70.4692,-68.5914,5.13,5.13,5.13,87,75,5.14,CA,1660242198
ouesso,1.6136,16.0517,25.11,25.11,25.11,72,99,2.9,CG,1660241934
haines junction,60.7522,-137.5108,11.09,11.09,11.09,88,100,0.78,CA,1660241806
cidreira,-30.1811,-50.2056,17.18,17.18,17.18,67,1,2.98,BR,1660242199
hermanus,-34.4187,19.2345,12.67,12.67,12.67,76,100,5.77,ZA,1660242199
butaritari,3.0707,172.7902,27.69,27.69,27.69,73,92,4.89,KI,1660242199
cherskiy,68.75,161.3,14.89,14.89,14.89,67,63,0.85,RU,1660242199
kavieng,-2.5744,150.7967,27.38,27.38,27.38,79,52,4.54,PG,1660241782
ahipara,-35.1667,173.1667,8.01,8.01,8.01,81,5,1.77,NZ,1660242199
faro,37.0194,-7.9322,22.93,26.21,22.88,73,0,6.17,PT,1660242199
perbaungan,3.5679,98.956,25.06,25.06,24.53,90,100,1.62,ID,1660242199
ushuaia,-54.8,-68.3,2.81,3.79,2.81,87,40,1.03,AR,1660242199
axim,4.8699,-2.2405,24.56,24.56,24.56,80,100,3.14,GH,1660242200
yar-sale,66.8333,70.8333,14.72,14.72,14.72,66,100,3.61,RU,1660241847
moranbah,-22.0016,148.0466,12.81,12.81,12.81,92,99,3.66,AU,1660241807
ampanihy,-24.7,44.75,21.22,21.22,21.22,40,0,3.72,MG,1660241919
atuona,-9.8,-139.0333,24.91,24.91,24.91,74,32,11.68,PF,1660242200
solnechnyy,50.7214,136.6319,11.18,11.18,11.18,98,79,1.86,RU,1660242200
nantucket,41.2835,-70.0995,20.41,22.06,19.52,75,100,2.06,US,1660242201
minas,-34.3759,-55.2377,15.66,15.66,15.66,56,0,5.21,UY,1660242201
georgetown,5.4112,100.3354,28.46,28.86,27.96,87,20,1.03,MY,1660242018
saryg-sep,51.5,95.6,14.21,14.21,14.21,65,73,1.32,RU,1660242201
arraial do cabo,-22.9661,-42.0278,20.56,20.56,20.56,75,8,13.83,BR,1660242201
severo-kurilsk,50.6789,156.125,13.25,13.25,13.25,95,99,4.9,RU,1660242201
provideniya,64.3833,-173.3,9.75,9.75,9.75,94,78,2.61,RU,1660242201
vila velha,-20.3297,-40.2925,23.86,24.97,23.86,61,0,7.72,BR,1660242202
malakal,9.5334,31.6605,21.09,21.09,21.09,98,100,2.54,SS,1660241937
fortuna,40.5982,-124.1573,18.16,18.85,16.19,83,100,3.09,US,1660242202
avarua,-21.2078,-159.775,23.35,23.35,23.35,76,19,6.49,CK,1660242202
muzhi,65.3667,64.6667,12.79,12.79,12.79,96,100,3.27,RU,1660242202
quelimane,-17.8786,36.8883,20.23,20.23,20.23,82,1,2.2,MZ,1660242202
chokurdakh,70.6333,147.9167,9.47,9.47,9.47,74,100,3.37,RU,1660242202
hamilton,39.1834,-84.5333,28.25,29.86,26.51,58,0,3.6,US,1660242203
saskylakh,71.9167,114.0833,6.34,6.34,6.34,70,100,3.45,RU,1660242203
fort nelson,58.8053,-122.7002,12.77,12.77,12.77,76,100,2.06,CA,1660242203
qaanaaq,77.484,-69.3632,3.84,3.84,3.84,73,100,3.51,GL,1660242203
sohag,26.557,31.6948,33.87,33.87,33.87,19,0,5.52,EG,1660242203
mahebourg,-20.4081,57.7,20.16,21.25,20.16,64,40,8.23,MU,1660242203
chardara,41.2547,67.9692,23.9,23.9,23.9,35,0,4.37,KZ,1660242204
sakakah,29.9697,40.2064,36.76,36.76,36.76,22,0,4.63,SA,1660242204
mar del plata,-38.0023,-57.5575,15.9,16.08,15.49,59,0,8.49,AR,1660242204
bathsheba,13.2167,-59.5167,28.87,28.87,28.87,74,10,5.13,BB,1660241795
thompson,55.7435,-97.8558,24.09,24.09,24.09,46,20,7.2,CA,1660242204
diu,20.7141,70.9822,26.56,26.56,26.56,89,98,10.71,IN,1660242204
bacolod,10.6667,122.95,25.63,25.63,25.63,83,92,1.63,PH,1660241950
tiksi,71.6872,128.8694,5.9,5.9,5.9,94,100,4.55,RU,1660242204
mackenzie,55.2999,-123.1698,21.12,21.12,21.12,52,0,1.54,CA,1660242205
marsh harbour,26.5412,-77.0636,28.62,28.62,28.62,69,1,5.5,BS,1660242205
panguna,-6.3164,155.4848,19.42,19.42,19.42,96,100,0.99,PG,1660242205
jian,27.1172,114.9793,27.53,27.53,27.53,67,5,2.56,CN,1660242205
dhidhdhoo,6.8833,73.1,27.4,27.4,27.4,83,67,5.71,MV,1660242205
garanhuns,-8.8903,-36.4928,24.32,24.32,24.32,64,3,4.13,BR,1660242205
kailua,21.4022,-157.7394,25.57,25.57,25.57,76,100,9.66,US,1660242205
punta arenas,-53.15,-70.9167,4.01,4.06,3.95,56,40,5.14,CL,1660242206
linxia,35.6003,103.2064,20.97,20.97,20.97,83,100,1.26,CN,1660242206
port blair,11.6667,92.75,27.02,27.02,27.02,83,75,3.09,IN,1660242206
mabaruma,8.2,-59.7833,32.66,32.66,32.66,52,13,2.89,GY,1660242206
bredasdorp,-34.5322,20.0403,12.4,12.4,12.4,79,100,2.55,ZA,1660242206
buraydah,26.326,43.975,39.25,39.25,39.25,14,40,6.73,SA,1660242206
faya,18.3851,42.4509,19.29,20.06,19.29,76,94,2.05,SA,1660242206
port hardy,50.6996,-127.4199,15.11,15.11,15.11,97,100,1.6,CA,1660242206
mana,5.6592,-53.7767,28.81,28.81,28.81,67,29,3.74,GF,1660242207
san cristobal,7.7669,-72.225,32.1,32.1,32.1,41,13,4.56,VE,1660242207
venice,27.0998,-82.4543,32.05,32.99,30.0,64,0,3.09,US,1660242207
balabac,7.9868,117.0645,27.86,27.86,27.86,76,62,2.58,PH,1660242207
koumac,-20.5667,164.2833,17.51,17.51,17.51,68,0,3.8,NC,1660242207
zemio,5.0314,25.1361,22.07,22.07,22.07,96,86,0.63,CF,1660242207
diamantino,-14.4086,-56.4461,29.04,29.04,29.04,18,3,2.28,BR,1660242208
chuy,-33.6971,-53.4616,15.17,15.17,15.17,69,1,3.44,UY,1660242208
ponta do sol,32.6667,-17.1,23.63,23.96,22.35,69,55,2.34,PT,1660242208
ilulissat,69.2167,-51.1,2.22,2.22,2.22,98,100,1.85,GL,1660242208
zhigansk,66.7697,123.3711,9.72,9.72,9.72,74,64,9.21,RU,1660241813
pevek,69.7008,170.3133,2.49,2.49,2.49,93,84,2.55,RU,1660241767
coahuayana,18.7333,-103.6833,32.08,32.08,32.08,57,100,2.31,MX,1660241849
san quintin,30.4833,-115.95,25.05,25.05,25.05,68,34,3.93,MX,1660242208
east london,-33.0153,27.9116,14.52,14.52,14.52,94,0,1.03,ZA,1660242209
kodiak,57.79,-152.4072,12.73,12.73,12.73,94,100,2.57,US,1660242209
hithadhoo,-0.6,73.0833,27.79,27.79,27.79,75,26,3.28,MV,1660242209
bethel,41.3712,-73.414,28.87,31.31,26.06,45,0,4.12,US,1660242209
bilma,18.6853,12.9164,37.96,37.96,37.96,9,6,3.81,NE,1660242209
norman wells,65.282,-126.8329,15.02,15.02,15.02,58,75,3.09,CA,1660242209
sao bernardo,-3.3614,-42.4178,36.9,36.9,36.9,26,77,1.34,BR,1660242209
novonikolsk,43.8506,131.8645,16.7,16.7,16.7,91,4,1.56,RU,1660242209
saint george,37.1041,-113.5841,31.79,32.36,29.33,40,0,1.34,US,1660242210
fatsa,41.0278,37.5014,25.89,25.89,25.89,85,0,2.28,TR,1660242210
buckeye,33.3703,-112.5838,36.15,37.48,35.27,39,93,3.6,US,1660242210
mitu,1.1983,-70.1733,27.21,27.21,27.21,77,21,1.74,CO,1660242210
potosi,-19.5836,-65.7531,16.48,16.48,16.48,25,0,4.12,BO,1660242210
inhambane,-23.865,35.3833,21.17,21.17,21.17,73,0,4.36,MZ,1660241808
nhulunbuy,-12.2333,136.7667,20.34,20.34,20.34,94,8,2.06,AU,1660241805
hobart,-42.8794,147.3294,6.51,6.7,5.92,90,40,1.54,AU,1660242210
faanui,-16.4833,-151.75,25.5,25.5,25.5,76,16,5.92,PF,1660242211
safford,32.834,-109.7076,25.51,30.06,25.51,61,0,6.69,US,1660242211
vila do maio,15.1333,-23.2167,31.44,31.44,31.44,79,59,6.47,CV,1660242211
hasaki,35.7333,140.8333,26.22,27.38,26.22,86,26,11.32,JP,1660241954
praya,14.9215,-23.5087,26.9,26.9,26.9,72,48,4.89,CV,1660242211
alice springs,-23.7,133.8833,2.75,2.75,2.75,100,62,2.57,AU,1660241714
becerril,9.7041,-73.2793,35.55,35.55,35.55,39,98,3.6,CO,1660242211
pundaguitan,6.3711,126.1689,27.82,27.82,27.82,76,34,2.63,PH,1660241840
sur,22.5667,59.5289,31.77,31.77,31.77,60,87,5.0,OM,1660241822
mandawar,29.5,78.1333,25.63,25.63,25.63,75,90,2.08,IN,1660242212
glasgow,55.8652,-4.2576,23.11,25.08,20.84,53,1,4.12,GB,1660242212
yanam,16.7333,82.2167,26.19,26.19,26.19,89,100,1.71,IN,1660242212
liverpool,53.4106,-2.9779,26.79,30.77,23.23,44,0,4.12,GB,1660242212
egvekinot,66.3167,-179.1667,8.19,8.19,8.19,96,100,2.43,RU,1660241830
cedar city,37.6775,-113.0619,22.54,25.22,22.54,60,20,1.54,US,1660242212
parfenyevo,58.484,43.4088,14.8,14.8,14.8,71,59,2.38,RU,1660242212
bambous virieux,-20.3428,57.7575,20.14,21.23,20.14,64,40,8.23,MU,1660242213
buchanan,5.8808,-10.0467,24.93,24.93,24.93,81,85,5.26,LR,1660242213
victoria,22.2855,114.1577,27.33,27.33,27.33,83,91,4.5,HK,1660242204
port alfred,-33.5906,26.891,17.54,17.54,17.54,84,91,3.83,ZA,1660242213
katsuura,35.1333,140.3,27.04,27.04,27.04,87,17,9.98,JP,1660241948
bundaberg,-24.85,152.35,14.23,14.23,14.23,91,87,2.11,AU,1660242213
airai,-8.9266,125.4092,14.39,14.39,14.39,94,81,1.38,TL,1660242213
iberia,29.9502,-91.7507,29.0,29.0,29.0,69,97,3.38,US,1660242079
oussouye,12.485,-16.5469,28.66,28.66,28.66,68,87,4.93,SN,1660241833
ancud,-41.8697,-73.8203,9.22,9.22,9.22,92,100,9.05,CL,1660242214
krasnoselkup,65.7,82.4667,10.3,10.3,10.3,65,90,3.15,RU,1660242214
husavik,66.0449,-17.3389,12.23,12.23,12.23,63,79,1.8,IS,1660242214
jaque,7.5175,-78.1703,25.64,25.64,25.64,90,98,2.94,PA,1660241792
tuktoyaktuk,69.4541,-133.0374,9.96,9.96,9.96,78,100,5.51,CA,1660242214
changji,44.0167,87.3167,23.44,23.44,23.44,60,0,1.0,CN,1660242214
aranos,-24.1333,19.1167,20.92,20.92,20.92,9,8,1.69,NA,1660242214
klaksvik,62.2266,-6.589,12.51,12.51,12.51,77,76,6.03,FO,1660242215
mehamn,71.0357,27.8492,10.97,10.97,10.95,82,75,6.69,NO,1660242215
college,64.8569,-147.8028,12.62,13.93,11.11,66,20,0.45,US,1660242215
jiayuguan,39.8167,98.3,27.42,27.42,27.42,47,71,4.04,CN,1660241782
aldan,58.6031,125.3894,11.4,11.4,11.4,99,100,1.27,RU,1660242215
sinjar,36.3209,41.8754,32.95,32.95,32.95,25,0,4.96,IQ,1660242215
little chute,44.28,-88.3184,23.1,23.1,23.1,47,0,3.38,US,1660242215
lata,40.1629,-8.3327,24.81,24.81,24.81,51,0,3.64,PT,1660242216
thunder bay,48.4001,-89.3168,21.95,21.95,21.95,40,20,3.09,CA,1660242216
sibolga,1.7427,98.7792,24.31,24.31,24.31,82,42,1.99,ID,1660242216
bairiki,1.3292,172.9752,27.0,27.0,27.0,83,20,2.57,KI,1660241833
tasiilaq,65.6145,-37.6368,5.09,5.09,5.09,82,31,1.23,GL,1660242217
carbonia,39.1672,8.5222,23.53,23.53,23.36,64,15,2.79,IT,1660242217
aracuai,-16.8497,-42.0703,33.49,33.49,33.49,26,84,1.94,BR,1660242217
champerico,14.3,-91.9167,33.3,33.3,33.3,63,69,2.44,GT,1660241813
tianjin,39.1422,117.1767,24.97,24.97,24.97,88,32,2.0,CN,1660242001
ahar,38.4774,47.0699,22.4,22.4,22.4,59,0,2.73,IR,1660242218
barcelos,41.5388,-8.6151,24.85,25.51,23.08,63,15,2.14,PT,1660242218
valley city,46.9233,-98.0032,22.29,22.29,22.29,64,0,5.14,US,1660242218
udachnyy,66.4167,112.4,8.95,8.95,8.95,92,100,8.54,RU,1660242219
lorengau,-2.0226,147.2712,26.71,26.71,26.71,78,43,1.68,PG,1660242219
port moresby,-9.4431,147.1797,22.68,22.68,22.68,88,40,2.06,PG,1660242219
najran,17.4924,44.1277,32.36,32.36,32.36,33,100,4.37,SA,1660242219
khatanga,71.9667,102.5,6.94,6.94,6.94,64,100,2.78,RU,1660242219
comodoro rivadavia,-45.8667,-67.5,15.92,15.92,15.92,36,20,7.72,AR,1660242219
uvalde,29.3669,-99.767,34.85,34.85,34.85,35,80,3.46,US,1660242219
ngunguru,-35.6167,174.5,7.72,7.72,7.72,83,7,4.17,NZ,1660242220
terenos,-20.4422,-54.8603,21.84,21.84,21.84,43,0,3.6,BR,1660242220
bahir dar,11.5936,37.3908,16.1,16.1,16.1,91,100,1.83,ET,1660242220
mao,39.8885,4.2658,29.31,29.31,29.31,54,0,4.12,ES,1660242220
codrington,-38.2667,141.9667,8.15,8.15,8.15,71,99,2.73,AU,1660242220
jalu,29.0331,21.5482,31.97,31.97,31.97,22,0,3.69,LY,1660241829
moussoro,13.6408,16.4901,31.82,31.82,31.82,50,72,6.4,TD,1660242220
west plains,36.7281,-91.8524,27.19,28.46,26.16,61,0,2.68,US,1660242221
chumikan,54.7183,135.315,11.96,11.96,11.96,98,100,0.1,RU,1660242221
taksimo,56.3444,114.8794,12.67,12.67,12.67,84,100,1.57,RU,1660242221
yeniseysk,58.4497,92.1703,10.92,10.92,10.92,74,0,2.0,RU,1660242221
portland,45.5234,-122.6762,23.42,25.58,21.58,64,20,3.6,US,1660241943
nanortalik,60.1432,-45.2371,7.96,7.96,7.96,90,92,3.91,GL,1660242221
ramnagar,29.4,79.1167,26.0,26.0,26.0,72,43,2.06,IN,1660242221
terney,45.0503,136.6092,18.05,18.05,18.05,91,35,2.91,RU,1660242222
geraldton,-28.7667,114.6,9.23,9.23,9.23,81,0,3.09,AU,1660242222
ghoti,19.7168,73.6245,21.93,21.93,21.93,98,100,7.28,IN,1660242222
santa vitoria do palmar,-33.5189,-53.3681,15.22,15.22,15.22,69,3,3.08,BR,1660242222
peniche,39.3558,-9.3811,22.67,25.04,22.18,83,9,3.78,PT,1660242222
san juan de colon,8.0313,-72.2605,32.77,32.77,32.77,37,17,0.82,VE,1660242222
riacho de santana,-13.6092,-42.9389,32.57,32.57,32.57,20,38,2.91,BR,1660242223
miri,4.4148,114.0089,28.08,28.08,28.08,89,40,1.54,MY,1660242223
port lincoln,-34.7333,135.8667,12.29,12.29,12.29,77,72,9.4,AU,1660242223
shubarshi,48.5872,57.1869,29.41,29.41,29.41,25,41,0.84,KZ,1660242223
leningradskiy,69.3833,178.4167,7.17,7.17,7.17,86,90,1.43,RU,1660241778
ushtobe,45.2514,77.9838,21.67,21.67,21.67,41,52,2.02,KZ,1660242224
puerto ayora,-0.7393,-90.3518,21.76,21.76,21.76,84,100,4.88,EC,1660242224
gornyak,50.9942,81.4661,15.57,15.57,15.57,90,100,2.65,RU,1660242224
amahai,-3.3333,128.9167,24.46,24.46,24.46,89,76,1.18,ID,1660242225
castro,-24.7911,-50.0119,15.42,15.42,15.42,51,11,3.08,BR,1660242225
heishan,41.6892,122.1128,20.36,20.36,20.36,94,11,2.04,CN,1660242225
biak,-0.9131,122.8766,24.58,24.58,24.58,85,58,0.62,ID,1660242225
araguaina,-7.1911,-48.2072,38.69,38.69,38.69,16,2,1.08,BR,1660242226
hohhot,40.8106,111.6522,25.22,25.22,25.22,51,25,0.8,CN,1660242226
maarianhamina,60.0973,19.9348,19.18,19.18,19.18,79,58,3.93,AX,1660242226
isangel,-19.55,169.2667,20.57,20.57,20.57,64,21,6.45,VU,1660242226
berbera,10.4396,45.0143,32.92,32.92,32.92,44,82,10.08,SO,1660242226
los llanos de aridane,28.6585,-17.9182,21.74,21.74,20.86,82,75,5.66,ES,1660242226
ekuvukeni,-28.4675,30.1551,17.96,17.96,17.96,20,4,1.84,ZA,1660242226
dukat,62.55,155.55,10.74,10.74,10.74,91,100,2.24,RU,1660242227
mareeba,-17.0,145.4333,18.6,18.6,18.4,99,15,0.91,AU,1660242227
cabo san lucas,22.8909,-109.9124,33.21,35.34,32.61,51,0,5.14,MX,1660242227
andenes,69.3143,16.1194,10.99,10.99,10.52,82,75,14.4,NO,1660242227
along,28.1667,94.7667,24.66,24.66,24.66,97,83,0.26,IN,1660241774
lagoa,39.05,-27.9833,23.08,23.08,23.08,79,61,5.98,PT,1660242227
samarai,-10.6167,150.6667,26.1,26.1,26.1,82,92,7.84,PG,1660242227
marawi,7.9986,124.2928,19.89,19.89,19.89,90,67,0.75,PH,1660241789
dikson,73.5069,80.5464,6.44,6.44,6.44,96,93,7.45,RU,1660242228
chapais,49.7834,-74.8492,11.88,11.88,11.88,93,100,4.68,CA,1660242228
alofi,-19.0595,-169.9187,22.94,22.94,22.94,88,61,2.57,NU,1660242229
flinders,-34.5833,150.8552,13.76,13.76,13.76,73,100,2.79,AU,1660241802
yerbogachen,61.2767,108.0108,11.75,11.75,11.75,97,25,2.19,RU,1660242229
salina,38.8403,-97.6114,33.01,34.45,31.07,35,0,3.6,US,1660242229
okhotsk,59.3833,143.3,13.45,13.45,13.45,97,100,1.76,RU,1660242229
puksoozero,62.5903,40.6066,17.49,17.49,17.49,62,99,5.62,RU,1660242229
turbat,26.0023,63.044,30.77,30.77,30.77,66,100,13.32,PK,1660241769
deputatskiy,69.3,139.9,8.56,8.56,8.56,83,100,1.67,RU,1660242229
parbhani,19.2667,76.7833,24.63,24.63,24.63,81,72,6.39,IN,1660242230
torbay,47.6666,-52.7314,14.35,14.35,14.35,83,100,4.33,CA,1660242230
parker,32.7668,-97.8003,34.01,35.96,32.44,42,28,2.68,US,1660242230
panama city,8.9936,-79.5197,29.4,29.97,27.38,76,40,7.2,PA,1660241825
kismayo,-0.3582,42.5454,23.97,23.97,23.97,78,26,6.68,SO,1660242230
vryburg,-26.9566,24.7284,18.05,18.05,18.05,23,0,3.6,ZA,1660242230
walvis bay,-22.9575,14.5053,13.25,13.25,13.25,83,28,3.21,NA,1660242230
ordzhonikidze,52.4411,61.7408,22.32,22.32,22.32,58,46,5.9,KZ,1660242230
seoul,37.5683,126.9778,22.41,24.66,21.76,100,40,0.51,KR,1660242073
kununurra,-15.7667,128.7333,22.99,22.99,22.99,35,6,2.57,AU,1660242231
njinikom,6.2333,10.2833,16.76,16.76,16.76,98,100,1.43,CM,1660242231
charters towers,-20.1,146.2667,13.42,13.42,13.42,90,37,3.17,AU,1660242231
antalaha,-14.9003,50.2788,20.5,20.5,20.5,76,5,4.67,MG,1660242231
souillac,-20.5167,57.5167,20.03,20.03,20.03,71,83,8.2,MU,1660242231
naze,28.3667,129.4833,26.27,26.27,26.27,83,94,2.32,JP,1660241780
traverse city,44.7631,-85.6206,21.61,21.61,21.61,45,0,5.36,US,1660241831
anamur,36.0751,32.8369,28.3,28.3,28.3,77,10,6.39,TR,1660242232
shama,33.6102,104.2852,17.6,17.6,17.6,94,94,1.44,CN,1660242232
bambanglipuro,-7.95,110.2833,24.74,24.74,24.74,93,53,2.35,ID,1660242232
asfi,32.2994,-9.2372,22.84,22.84,22.84,74,4,7.72,MA,1660242232
pochutla,15.7432,-96.4661,29.34,29.34,28.9,60,99,1.95,MX,1660242232
seddon,-37.8068,144.8916,11.0,12.21,8.62,82,75,8.23,AU,1660241824
viamao,-30.0811,-51.0233,18.29,19.82,17.99,61,40,6.17,BR,1660242233
singida,-4.8167,34.75,18.46,18.46,18.46,56,33,5.71,TZ,1660242233
pangnirtung,66.1451,-65.7125,10.0,10.0,10.0,71,20,4.12,CA,1660242233
viedma,-40.8135,-62.9967,18.19,18.19,18.19,29,0,5.3,AR,1660242233
rach gia,10.0167,105.0833,26.59,26.59,26.59,84,99,4.14,VN,1660242233
vestmanna,62.1564,-7.1664,11.51,11.51,11.51,82,20,4.12,FO,1660242233
tigil,57.8,158.6667,14.15,14.15,14.15,93,100,2.41,RU,1660242233
santa cruz,-17.8,-63.1667,24.03,24.7,24.03,29,0,4.63,BO,1660241823
requena,39.4883,-1.1004,26.55,26.55,25.29,41,0,4.84,ES,1660242234
port said,31.2565,32.2841,27.54,27.54,27.54,67,0,4.87,EG,1660242234
gizeh,30.0081,31.2109,32.92,32.92,32.92,24,0,5.23,EG,1660242234
rawson,-43.3002,-65.1023,15.74,15.74,15.74,35,20,5.75,AR,1660241845
gat,31.61,34.7642,26.65,27.67,26.16,100,0,3.47,IL,1660242234
enid,36.3956,-97.8784,32.39,32.39,32.39,35,1,3.29,US,1660242234
dwarka,22.2394,68.9678,27.65,27.65,27.65,88,100,2.14,IN,1660242234
shimoda,34.6667,138.95,24.5,24.5,24.5,91,72,6.15,JP,1660242093
weligama,5.9667,80.4167,25.26,25.26,25.26,93,68,2.87,LK,1660242235
kungurtug,50.5994,97.5228,14.1,14.1,14.1,65,93,0.47,RU,1660242235
longyearbyen,78.2186,15.6401,6.33,6.33,6.33,91,100,2.12,SJ,1660242235
verkhovazhye,60.7472,42.0465,15.68,15.68,15.68,71,93,2.98,RU,1660242235
quatre cocos,-20.2078,57.7625,21.16,21.16,20.06,72,91,8.84,MU,1660242235
aloja,57.7669,24.8825,17.37,17.37,17.37,63,86,1.6,LV,1660242235
erdaojiang,41.7764,126.0319,15.93,15.93,15.93,98,16,0.63,CN,1660242235
mapiripan,2.8892,-72.1256,29.61,29.61,29.61,62,31,3.1,CO,1660242235
bocana de paiwas,12.7857,-85.1227,27.14,27.14,27.14,83,90,5.66,NI,1660242236
ati,13.2154,18.3353,29.43,29.43,29.43,59,100,5.1,TD,1660242236
tromso,69.6496,18.957,10.16,10.16,10.16,93,100,16.33,NO,1660242236
behbahan,30.5959,50.2417,40.74,40.74,40.74,20,36,2.45,IR,1660242236
kikwit,-5.041,18.8162,29.5,29.5,29.5,16,93,1.76,CD,1660242236
silver city,32.7701,-108.2803,21.09,22.04,20.17,67,0,5.14,US,1660242236
toumodi,6.5613,-5.0158,25.94,25.94,25.94,73,99,1.74,CI,1660242237
cabedelo,-6.9811,-34.8339,27.37,27.37,27.37,67,61,4.49,BR,1660242237
illapel,-31.6308,-71.1653,18.86,18.86,18.86,49,90,2.94,CL,1660242237
erzin,36.9559,36.2,25.52,25.52,25.52,86,64,2.32,TR,1660242237
gizo,-8.103,156.8419,27.02,27.02,27.02,77,97,2.48,SB,1660242237
seabra,-12.4186,-41.7703,33.27,33.27,33.27,14,3,3.44,BR,1660242237
baraboo,43.4711,-89.7443,24.96,26.12,23.94,50,75,1.54,US,1660242237
kamenka,51.3223,42.7678,20.62,20.62,20.62,78,61,6.58,RU,1660242237
ostrovnoy,68.0531,39.5131,12.11,12.11,12.11,86,66,1.39,RU,1660242238
mindelo,16.8901,-24.9804,25.59,25.59,25.59,78,25,8.39,CV,1660242238
ormara,25.2088,64.6357,26.77,26.77,26.77,89,100,10.44,PK,1660242238
dale,38.1689,-86.99,28.37,29.41,27.49,57,0,2.57,US,1660242238
tautira,-17.7333,-149.15,25.29,25.29,25.29,76,6,5.95,PF,1660242238
praia da vitoria,38.7333,-27.0667,23.24,23.24,23.24,78,98,6.6,PT,1660242238
ginda,30.6945,78.4932,18.1,18.1,18.1,74,77,3.05,IN,1660242238
moree,-29.4667,149.85,13.02,13.02,13.02,69,100,5.49,AU,1660242239
adiake,5.2863,-3.304,25.11,25.11,25.11,77,90,3.59,CI,1660242239
itoman,26.1247,127.6694,28.01,28.01,26.89,89,20,1.54,JP,1660241988
vicuna,-30.0319,-70.7081,25.43,25.43,8.85,23,100,2.5,CL,1660242239
campo grande,-20.4428,-54.6464,20.75,20.75,20.75,43,0,3.6,BR,1660242239
pryazha,61.6926,33.6216,20.57,20.57,20.57,67,100,5.78,RU,1660242239
itarema,-2.9248,-39.9167,28.99,28.99,28.99,63,63,8.08,BR,1660242239
bridgetown,13.1,-59.6167,28.55,28.55,28.55,75,7,5.12,BB,1660242240
punta alta,-38.8759,-62.0736,15.99,15.99,15.99,45,0,6.95,AR,1660242240
lingyuan,41.24,119.4011,20.28,20.28,20.28,91,9,1.5,CN,1660242240
graham,47.0529,-122.2943,21.77,23.4,20.22,66,20,3.09,US,1660242240
dalton,34.7698,-84.9702,28.46,29.9,27.07,75,75,0.89,US,1660242240
vikhorevka,56.1201,101.1636,11.77,11.77,11.25,95,7,1.18,RU,1660242240
sa kaeo,13.75,102.3333,23.7,23.7,23.7,95,100,3.25,TH,1660242104
araouane,18.9048,-3.5265,39.31,39.31,39.31,23,3,1.67,ML,1660242241
ulladulla,-35.35,150.4667,14.28,14.28,14.28,65,100,3.72,AU,1660241644
lasa,46.6166,10.7002,19.97,19.97,19.97,77,88,0.97,IT,1660242241
camacupa,-12.0167,17.4833,20.14,20.14,20.14,14,4,1.11,AO,1660242241
petropavlovsk-kamchatskiy,53.0452,158.6483,10.33,10.33,10.33,100,100,1.0,RU,1660242241
salalah,17.0151,54.0924,25.05,25.05,25.05,100,100,2.06,OM,1660242241
palmer,42.1584,-72.3287,29.21,29.21,29.21,36,100,1.82,US,1660242241
jiaohe,43.7286,127.3447,15.05,15.05,15.05,92,7,1.26,CN,1660242241
valdivia,-39.8142,-73.2459,12.83,12.83,12.83,67,96,1.59,CL,1660242242
tateyama,34.9833,139.8667,27.05,27.05,27.05,87,38,9.7,JP,1660242079
sobreira,41.5237,-7.8023,23.11,24.41,23.11,50,0,3.67,PT,1660242242
uinskoye,56.8817,56.5813,12.48,12.48,12.48,82,20,1.79,RU,1660242242
thabazimbi,-24.5917,27.4116,18.67,18.67,18.67,28,0,1.27,ZA,1660242243
saint-pierre,-21.3393,55.4781,18.13,20.51,17.82,77,20,3.09,RE,1660242243
aerzen,52.0495,9.2586,24.94,24.94,24.94,38,14,2.53,DE,1660242243
port-cartier,50.0334,-66.8654,20.16,20.16,20.16,75,85,1.87,CA,1660242243
maragogi,-9.0122,-35.2225,26.21,26.21,26.21,73,69,4.56,BR,1660242243
ust-kuyga,70.0167,135.6,10.61,10.61,10.61,82,100,3.45,RU,1660241839
constitucion,-35.3333,-72.4167,13.37,13.37,13.37,64,0,3.99,CL,1660242244
manavgat,36.7867,31.4431,27.8,27.8,27.8,70,11,1.5,TR,1660242244
millbrook,32.4799,-86.3619,33.35,33.35,33.35,44,75,1.78,US,1660242244
pombas,17.1503,-25.0201,26.88,26.88,26.88,78,30,5.77,CV,1660242244
poronaysk,49.2167,143.1167,14.98,14.98,14.98,81,52,1.74,RU,1660242203
ibra,22.6906,58.5334,32.46,32.46,32.46,47,94,2.89,OM,1660242244
marzuq,14.4,46.4667,26.38,26.38,26.38,69,100,3.78,YE,1660241797
tabou,4.423,-7.3528,24.95,24.95,24.95,78,64,4.41,CI,1660242244
tupik,54.4253,119.9327,12.83,12.83,12.83,95,100,1.17,RU,1660242245
letterkenny,54.95,-7.7333,18.94,18.94,16.96,62,0,2.75,IE,1660242245
huaihua,27.5494,109.9592,26.29,26.29,26.29,82,90,1.99,CN,1660242245
ndago,-4.6,34.35,21.01,21.01,21.01,42,16,5.05,TZ,1660242245
ayan,56.45,138.1667,13.09,13.09,13.09,96,100,5.27,RU,1660242245
kasongo,-4.45,26.6667,27.59,27.59,27.59,25,49,1.46,CD,1660242245
ponta delgada,37.7333,-25.6667,25.4,25.4,25.4,61,20,4.63,PT,1660242245
rupert,42.6191,-113.6772,30.22,30.22,30.22,31,40,2.66,US,1660242246
tual,-5.6667,132.75,26.72,26.72,26.72,81,84,5.62,ID,1660241748
khalkhal,37.6189,48.5258,17.56,17.56,17.56,84,5,3.36,IR,1660242246
balgazyn,51.0,95.2,14.1,14.1,14.1,88,74,1.16,RU,1660242246
chicama,-7.8447,-79.1469,22.67,22.67,22.67,59,18,4.22,PE,1660241828
kushima,31.4583,131.2333,25.8,25.8,25.8,93,99,2.66,JP,1660242246
lavrentiya,65.5833,-171.0,5.53,5.53,5.53,93,68,2.05,RU,1660241856
waipawa,-41.4122,175.5153,3.95,3.95,3.95,89,93,1.28,NZ,1660242247
carutapera,-1.195,-46.02,29.14,29.14,29.14,67,81,4.18,BR,1660242247
kodinsk,58.6881,99.1844,11.67,11.67,11.67,95,11,1.29,RU,1660241786
aklavik,68.2191,-135.0107,15.0,15.0,15.0,63,20,2.57,CA,1660242248
paramonga,-10.6667,-77.8333,19.88,19.88,19.88,68,40,3.89,PE,1660242248
luderitz,-26.6481,15.1594,14.13,14.13,14.13,83,48,5.04,NA,1660242248
yangambi,0.8102,24.4336,25.35,25.35,25.35,74,100,1.32,CD,1660242248
khvatovka,52.3524,46.5628,20.69,20.69,20.69,74,79,3.43,RU,1660242248
grand gaube,-20.0064,57.6608,21.32,21.32,20.22,60,80,2.68,MU,1660242249
glyadyanskoye,54.9075,65.0883,20.65,20.65,20.65,67,48,4.76,RU,1660242249
aksu,41.1231,80.2644,26.69,26.69,26.69,37,54,2.86,CN,1660242249
arlit,18.7369,7.3853,39.8,39.8,39.8,15,8,0.84,NE,1660241804
ziway,7.9333,38.7167,18.45,18.45,18.45,81,95,6.5,ET,1660242249
jiuquan,39.7432,98.5174,28.32,28.32,28.32,46,62,4.78,CN,1660242117
kyshtovka,56.555,76.6271,18.99,18.99,18.99,73,65,2.68,RU,1660242250
zhuhai,22.2769,113.5678,26.78,26.88,25.84,94,40,3.09,CN,1660241809
oron,4.8256,8.2343,23.21,23.21,23.21,96,100,2.52,NG,1660242250
bunda,-2.05,33.8667,25.63,25.63,25.63,46,81,1.99,TZ,1660242250
harper,4.375,-7.7169,24.95,24.95,24.95,78,74,4.92,LR,1660242250
pozo colorado,-23.4923,-58.7972,24.3,24.3,24.3,31,0,3.21,PY,1660242250
zheleznodorozhnyy,55.7503,38.0042,19.18,21.29,17.1,59,9,2.49,RU,1660242169
muroto,33.2833,134.15,27.7,27.7,27.7,81,100,1.28,JP,1660242128
sitka,57.0531,-135.33,15.94,15.94,15.94,82,75,0.0,US,1660242034
la crosse,43.8014,-91.2396,24.97,24.97,24.97,49,35,1.89,US,1660242251
missoula,47.0166,-113.8009,26.19,26.19,26.19,36,99,1.78,US,1660242251
spassk-ryazanskiy,54.4072,40.3806,17.88,17.88,17.88,60,6,3.4,RU,1660242251
hellin,38.5106,-1.701,30.3,30.3,30.3,28,2,7.09,ES,1660242251
taperoa,-7.2075,-36.8267,30.69,30.69,30.69,33,20,3.8,BR,1660242251
west wendover,40.7391,-114.0733,25.96,25.96,25.96,44,92,1.71,US,1660242252
inuvik,68.3499,-133.7218,15.24,15.24,15.24,47,46,2.26,CA,1660242252
corn island,12.1694,-83.0418,27.52,27.52,27.52,81,100,6.51,NI,1660242252
xai-xai,-25.0519,33.6442,20.8,20.8,20.8,76,56,4.43,MZ,1660242252
vilhena,-12.7406,-60.1458,30.03,30.03,30.03,30,10,0.84,BR,1660242252
santa isabel do rio negro,-0.4139,-65.0192,31.15,31.15,31.15,58,31,1.13,BR,1660242252
diban,35.0365,40.5167,34.38,34.38,34.38,23,0,4.17,SY,1660242253
rabo de peixe,37.8,-25.5833,24.73,24.73,24.73,61,20,4.63,PT,1660242253
namibe,-15.1961,12.1522,16.99,16.99,16.99,89,89,1.65,AO,1660242253
tadine,-21.55,167.8833,19.73,19.73,19.73,59,44,6.37,NC,1660242253
kiama,-34.6833,150.8667,13.68,14.1,12.92,76,100,1.34,AU,1660242253
mount gambier,-37.8333,140.7667,8.14,8.14,8.14,94,100,2.09,AU,1660242253
meulaboh,4.1363,96.1285,25.46,25.46,25.46,84,98,0.43,ID,1660241741
cabo rojo,18.0866,-67.1457,28.65,32.63,25.93,73,81,4.8,PR,1660241841
semey,50.4111,80.2275,18.31,18.31,18.31,75,47,1.87,KZ,1660242254
san policarpo,12.1791,125.5072,25.95,25.95,25.95,86,38,1.16,PH,1660242254
ambilobe,-13.2,49.05,19.53,19.53,19.53,71,8,2.43,MG,1660242254
fort smith,35.3859,-94.3986,32.03,32.41,30.18,46,0,2.24,US,1660242254
ketchikan,55.3422,-131.6461,20.26,20.26,16.99,64,0,3.6,US,1660242254
conceicao do araguaia,-8.2578,-49.2647,38.62,38.62,38.62,18,66,1.24,BR,1660242255
bhimunipatnam,17.8833,83.4333,27.73,27.73,27.73,76,100,4.23,IN,1660242255
port macquarie,-31.4333,152.9167,11.05,11.05,11.05,83,100,2.76,AU,1660242255
sioux lookout,50.1001,-91.917,21.04,21.04,21.04,43,20,2.06,CA,1660241843
tacuati,-23.45,-56.5833,24.04,24.04,24.04,34,0,2.45,PY,1660242255
ossora,59.2353,163.0719,11.54,11.54,11.54,91,100,1.28,RU,1660242255
makat,47.6469,53.3463,32.16,32.16,32.16,18,3,4.27,KZ,1660242255
aguilas,37.4063,-1.5829,31.14,31.14,31.14,47,0,5.65,ES,1660242255
abu dhabi,24.4667,54.3667,34.08,34.08,34.08,76,89,2.4,AE,1660242255
tam ky,15.5667,108.4833,25.42,25.42,25.42,85,94,1.65,VN,1660242256
pangody,65.85,74.4859,16.09,16.09,16.09,48,100,6.24,RU,1660242256
talnakh,69.4865,88.3972,7.57,7.57,7.57,77,31,1.02,RU,1660241781
leh,34.1667,77.5833,21.78,21.78,21.78,31,93,2.6,IN,1660241748
verkh-usugli,52.7,115.1667,10.96,10.96,10.96,84,56,1.03,RU,1660242256
bara,10.3744,10.7288,22.0,22.0,22.0,91,100,1.61,NG,1660242256
wonthaggi,-38.6044,145.5913,8.66,8.66,8.66,88,60,4.37,AU,1660241820
sawakin,19.1059,37.3321,34.97,34.97,34.97,52,44,5.38,SD,1660242256
kautokeino,69.0125,23.0412,9.66,9.66,9.66,77,100,10.03,NO,1660242257
kahului,20.8947,-156.47,26.86,27.01,26.09,75,20,8.23,US,1660242257
shangrao,28.4532,117.9686,28.23,28.23,28.23,68,93,0.75,CN,1660242257
lodja,-3.4833,23.4333,28.02,28.02,28.02,24,100,0.68,CD,1660242257
sistranda,63.7256,8.834,11.56,11.56,11.56,91,99,5.6,NO,1660241831
cordoba,-31.4135,-64.1811,21.13,22.46,18.99,34,0,5.66,AR,1660242257
balkhash,46.844,74.9804,22.36,22.36,22.36,50,82,6.51,KZ,1660242257
sao filipe,14.8961,-24.4956,26.69,26.69,26.69,70,6,5.72,CV,1660242257
kamsack,51.5667,-101.9009,22.13,22.13,22.13,50,100,5.73,CA,1660242258
pacific grove,36.6177,-121.9166,18.97,24.19,16.9,77,20,4.47,US,1660242258
adrar,20.5022,-10.0711,39.73,39.73,39.73,20,0,5.39,MR,1660242258
kibala,9.1104,18.3463,22.57,22.57,22.57,96,100,1.46,TD,1660242258
vardo,70.3705,31.1107,12.05,12.05,12.05,77,98,6.66,NO,1660242258
aden,12.7794,45.0367,30.38,30.38,30.38,74,83,6.39,YE,1660242258
khani,41.9563,42.9566,19.76,19.76,19.76,88,27,1.29,GE,1660242259
santa maria,-29.6842,-53.8069,17.61,17.61,17.61,63,20,3.09,BR,1660242259
teya,60.3778,92.6267,8.4,8.4,8.4,83,0,1.3,RU,1660242259
homer,59.6425,-151.5483,14.51,15.02,12.93,89,100,4.12,US,1660242259
oranjestad,12.524,-70.027,30.97,30.97,30.97,70,75,8.75,AW,1660242259
almaznyy,48.0448,40.045,28.75,28.75,28.75,31,100,4.73,RU,1660242259
kirakira,-10.4544,161.9205,25.74,25.74,25.74,88,100,3.93,SB,1660242259
xianshuigu,38.985,117.3828,24.76,24.76,24.76,86,28,1.6,CN,1660242259
lobito,-12.3481,13.5456,20.52,20.52,20.52,84,37,1.82,AO,1660242260
muros,42.7762,-9.0603,22.7,25.09,21.02,72,55,1.24,ES,1660241831
high level,58.5169,-117.136,10.23,10.23,10.23,94,100,3.16,CA,1660241810
tralee,52.2704,-9.7026,20.65,20.65,20.65,65,0,2.5,IE,1660242260
henties bay,-22.116,14.2845,13.04,13.04,13.04,88,31,4.45,NA,1660242260
fereydunshahr,32.941,50.121,22.68,22.68,22.68,31,38,1.59,IR,1660242260
siniscola,40.5719,9.6922,28.75,28.75,28.75,65,74,2.54,IT,1660242260
komsomolskiy,40.4272,71.7189,27.4,27.4,27.4,34,57,2.06,UZ,1660242260
srednekolymsk,67.45,153.6833,16.06,16.06,16.06,86,91,2.83,RU,1660242261
dezhou,37.4486,116.2925,23.34,23.34,23.34,96,4,2.28,CN,1660242087
kembe,4.6228,21.8865,22.09,22.09,22.09,95,100,2.43,CF,1660242261
lupiro,-8.3833,36.6667,22.58,22.58,22.58,52,83,0.94,TZ,1660242261
pandan,14.0453,124.1694,26.77,26.77,26.77,83,79,1.38,PH,1660241781
hattiesburg,31.3271,-89.2903,29.73,32.18,28.69,76,0,4.63,US,1660242261
monkey bay,-14.0728,34.9201,25.13,25.13,25.13,50,33,4.29,MW,1660242261
wawa,9.9022,4.4192,24.72,24.72,24.72,87,100,1.48,NG,1660242261
yandyki,45.7691,47.1258,27.75,27.75,27.75,47,6,5.84,RU,1660242262
qinzhou,21.95,108.6167,25.24,25.24,25.24,94,100,1.96,CN,1660242262
oktyabrskiy,54.4815,53.471,16.08,16.08,16.08,72,99,2.11,RU,1660241767
bima,-8.4667,118.7167,23.87,23.87,23.87,96,56,1.77,ID,1660242262
kawalu,-7.3817,108.2082,22.73,22.73,22.73,97,88,0.57,ID,1660242262
bilibino,68.0546,166.4372,15.01,15.01,15.01,77,100,1.98,RU,1660241854
tongren,27.7172,109.1853,25.87,25.87,25.87,87,78,1.42,CN,1660242262
broome,42.2506,-75.833,27.21,29.28,25.09,52,40,4.63,US,1660242262
la ceiba,15.7597,-86.7822,29.9,29.9,29.9,70,20,4.12,HN,1660242263
solhan,38.9634,41.0293,23.45,23.45,23.45,23,0,1.54,TR,1660242263
smidovich,48.6,133.8167,14.4,14.4,14.4,89,97,2.21,RU,1660242263
barra patuca,15.8,-84.2833,29.49,29.49,29.49,69,41,4.23,HN,1660242263
varkaus,62.3153,27.873,20.59,20.59,20.59,57,100,4.66,FI,1660242263
whitehorse,60.7161,-135.0538,11.57,12.43,10.73,86,100,5.66,CA,1660241771
singapore,1.2897,103.8501,28.93,29.0,28.02,80,75,3.09,SG,1660242039
saldanha,-33.0117,17.9442,13.49,13.49,13.49,89,100,3.98,ZA,1660242264
araioses,-2.89,-41.9031,30.29,30.29,30.29,57,88,5.71,BR,1660242264
carauari,-4.8828,-66.8958,33.46,33.46,33.46,40,42,1.56,BR,1660242264
tessalit,20.1986,1.0114,40.27,40.27,40.27,15,33,3.27,ML,1660242264
vao,-22.6667,167.4833,19.92,19.92,19.92,57,2,7.35,NC,1660242264
mormugao,15.4,73.8,24.59,24.59,24.59,94,100,3.09,IN,1660242265
stephenville,32.2207,-98.2023,34.5,35.14,32.74,36,40,1.54,US,1660242265
wilmington,34.2257,-77.9447,32.45,33.86,31.59,52,0,7.2,US,1660242049
nathdwara,24.9333,73.8167,24.35,24.35,24.35,94,100,2.57,IN,1660242265
batan,10.0844,-83.341,28.9,28.9,28.9,73,100,2.0,CR,1660242265
murmashi,68.8154,32.8115,13.33,13.33,13.33,76,62,4.23,RU,1660242266
skjervoy,70.0311,20.9714,10.96,10.96,10.96,88,100,20.56,NO,1660241770
iquitos,-3.7481,-73.2472,25.02,25.02,25.02,73,75,2.57,PE,1660242266
xining,36.6167,101.7667,19.76,19.76,19.76,85,100,1.25,CN,1660241821
tuatapere,-46.1333,167.6833,0.86,0.86,0.86,89,8,2.46,NZ,1660241804
biskamzha,53.4497,89.5272,14.32,14.32,14.32,94,100,1.08,RU,1660242266
zhangjiakou,40.81,114.8794,24.58,24.58,24.58,63,78,1.85,CN,1660242266
tiznit,29.5833,-9.5,26.07,26.07,26.07,52,3,3.3,MA,1660242267
orlik,52.5178,99.825,8.88,8.88,8.88,88,16,0.95,RU,1660242267
aguimes,27.9054,-15.4461,23.3,23.35,23.14,69,40,12.86,ES,1660242267
voh,-20.9667,164.7,15.04,15.04,15.04,74,0,2.47,NC,1660242267
cockburn town,21.4612,-71.1419,27.56,27.56,27.56,75,8,6.34,TC,1660241632
manyana,-23.4,21.7167,18.88,18.88,18.88,14,0,3.75,BW,1660242267
kalmunai,7.4167,81.8167,26.75,26.75,26.75,84,86,0.37,LK,1660241820
yulara,-25.2406,130.9889,8.02,8.02,8.02,41,0,4.47,AU,1660241794
cayeli,41.0923,40.7292,24.83,24.83,24.83,79,41,0.92,TR,1660242268
bandraboua,-12.7044,45.1223,23.82,23.82,23.82,65,4,1.35,YT,1660242268
rzhaksa,52.1338,42.0264,22.04,22.04,22.04,62,77,3.73,RU,1660242268
vestmannaeyjar,63.4427,-20.2734,11.03,11.03,11.03,80,100,5.84,IS,1660242268
igrim,63.1906,64.4162,13.47,13.47,13.47,96,100,0.94,RU,1660242268
nibbar,36.2941,8.7666,29.76,29.76,29.76,30,0,5.15,TN,1660242269
shingu,33.7333,135.9833,25.7,25.7,25.7,92,100,0.91,JP,1660242052
libenge,3.65,18.6333,23.1,23.1,23.1,92,99,1.77,CD,1660242269
mirabad,30.4362,61.8383,30.82,30.82,30.82,16,99,12.32,AF,1660242270
dubbo,-32.25,148.6167,11.07,11.07,11.07,93,75,4.63,AU,1660242130
nisia floresta,-6.0911,-35.2086,27.38,27.38,27.38,65,53,4.78,BR,1660242270
wauwatosa,43.0495,-88.0076,24.11,25.92,22.43,56,0,5.66,US,1660242270
kindersley,51.4668,-109.1682,25.01,25.01,25.01,57,40,5.14,CA,1660242270
gasa,31.5,34.4667,27.16,27.16,27.16,73,0,3.84,PS,1660242270
vallenar,-28.5708,-70.7581,21.54,21.54,21.54,33,100,2.27,CL,1660242270
kunashak,55.7032,61.5498,19.29,19.29,19.18,90,99,3.52,RU,1660242271
lengshuitan,26.4111,111.5956,26.52,26.52,26.52,78,23,2.41,CN,1660241628
biga,40.2281,27.2422,21.61,21.61,21.61,71,0,2.64,TR,1660242271
abu samrah,35.3029,37.1841,26.42,26.42,26.42,57,0,6.11,SY,1660242271
